external_id,name,is_tbd,latitude,longitude,raw
pankalan-indonesia,"Pankalan, Indonesia",False,-2.849667399839222,111.75292475602346,"{""type"": ""Feature"", ""properties"": {""id"": ""pankalan-indonesia"", ""name"": ""Pankalan, Indonesia"", ""is_tbd"": false}, ""geometry"": {""type"": ""Point"", ""coordinates"": [111.75292475602346, -2.849667399839222]}}"
ketapang-indonesia,"Ketapang, Indonesia",False,-1.859123326919139,109.97187133023849,"{""type"": ""Feature"", ""properties"": {""id"": ""ketapang-indonesia"", ""name"": ""Ketapang, Indonesia"", ""is_tbd"": false}, ""geometry"": {""type"": ""Point"", ""coordinates"": [109.97187133023849, -1.859123326919139]}}"
banjarmasin-indonesia,"Banjarmasin, Indonesia",False,-3.327961488455888,114.60399695504718,"{""type"": ""Feature"", ""properties"": {""id"": ""banjarmasin-indonesia"", ""name"": ""Banjarmasin, Indonesia"", ""is_tbd"": false}, ""geometry"": {""type"": ""Point"", ""coordinates"": [114.60399695504718, -3.327961488455888]}}"
pontianak-indonesia,"Pontianak, Indonesia",False,-0.02740748572126,109.33564131219983,"{""type"": ""Feature"", ""properties"": {""id"": ""pontianak-indonesia"", ""name"": ""Pontianak, Indonesia"", ""is_tbd"": false}, ""geometry"": {""type"": ""Point"", ""coordinates"": [109.33564131219983, -0.02740748572126]}}"
klagshamn-sweden,"Klagshamn, Sweden",False,55.53329310071712,12.916666647556017,"{""type"": ""Feature"", ""properties"": {""id"": ""klagshamn-sweden"", ""name"": ""Klagshamn, Sweden"", ""is_tbd"": false}, ""geometry"": {""type"": ""Point"", ""coordinates"": [12.916666647556017, 55.53329310071712]}}"
brondby-denmark,"Brondby, Denmark",False,55.64724561414846,12.41490919050584,"{""type"": ""Feature"", ""properties"": {""id"": ""brondby-denmark"", ""name"": ""Brondby, Denmark"", ""is_tbd"": false}, ""geometry"": {""type"": ""Point"", ""coordinates"": [12.41490919050584, 55.64724561414846]}}"
nybor-denmark,"Nybor, Denmark",False,55.324102015186114,10.799480647390464,"{""type"": ""Feature"", ""properties"": {""id"": ""nybor-denmark"", ""name"": ""Nybor, Denmark"", ""is_tbd"": false}, ""geometry"": {""type"": ""Point"", ""coordinates"": [10.799480647390464, 55.324102015186114]}}"
korsor-denmark,"Korsor, Denmark",False,55.32575488731598,11.149382743266532,"{""type"": ""Feature"", ""properties"": {""id"": ""korsor-denmark"", ""name"": ""Korsor, Denmark"", ""is_tbd"": false}, ""geometry"": {""type"": ""Point"", ""coordinates"": [11.149382743266532, 55.32575488731598]}}"
rostock-germany,"Rostock, Germany",False,54.078893478280825,12.13238985939624,"{""type"": ""Feature"", ""properties"": {""id"": ""rostock-germany"", ""name"": ""Rostock, Germany"", ""is_tbd"": false}, ""geometry"": {""type"": ""Point"", ""coordinates"": [12.13238985939624, 54.078893478280825]}}"
markgrafenheide-germany,"Markgrafenheide, Germany",False,54.19140540038316,12.149479691038506,"{""type"": ""Feature"", ""properties"": {""id"": ""markgrafenheide-germany"", ""name"": ""Markgrafenheide, Germany"", ""is_tbd"": false}, ""geometry"": {""type"": ""Point"", ""coordinates"": [12.149479691038506, 54.19140540038316]}}"
osterby-denmark,"Osterby, Denmark",False,57.31345558303452,11.199285051665399,"{""type"": ""Feature"", ""properties"": {""id"": ""osterby-denmark"", ""name"": ""Osterby, Denmark"", ""is_tbd"": false}, ""geometry"": {""type"": ""Point"", ""coordinates"": [11.199285051665399, 57.31345558303452]}}"
kristinelund-sweden,"Kristinelund, Sweden",False,56.134734209506526,12.588639536183623,"{""type"": ""Feature"", ""properties"": {""id"": ""kristinelund-sweden"", ""name"": ""Kristinelund, Sweden"", ""is_tbd"": false}, ""geometry"": {""type"": ""Point"", ""coordinates"": [12.588639536183623, 56.134734209506526]}}"
tinian-northern-mariana-islands,"Tinian, Northern Mariana Islands",False,15.011127130087093,145.63747106439294,"{""type"": ""Feature"", ""properties"": {""id"": ""tinian-northern-mariana-islands"", ""name"": ""Tinian, Northern Mariana Islands"", ""is_tbd"": false}, ""geometry"": {""type"": ""Point"", ""coordinates"": [145.63747106439294, 15.011127130087093]}}"
saipan-northern-mariana-islands,"Saipan, Northern Mariana Islands",False,15.1777319139343,145.7509475465053,"{""type"": ""Feature"", ""properties"": {""id"": ""saipan-northern-mariana-islands"", ""name"": ""Saipan, Northern Mariana Islands"", ""is_tbd"": false}, ""geometry"": {""type"": ""Point"", ""coordinates"": [145.7509475465053, 15.1777319139343]}}"
rota-northern-mariana-islands,"Rota, Northern Mariana Islands",False,14.151844706294286,145.21247136546685,"{""type"": ""Feature"", ""properties"": {""id"": ""rota-northern-mariana-islands"", ""name"": ""Rota, Northern Mariana Islands"", ""is_tbd"": false}, ""geometry"": {""type"": ""Point"", ""coordinates"": [145.21247136546685, 14.151844706294286]}}"
vila-olga-virgin-islands-u-s-,"Vila Olga, Virgin Islands (U.S.)",False,18.335728451477152,-64.94802428611733,"{""type"": ""Feature"", ""properties"": {""id"": ""vila-olga-virgin-islands-u-s-"", ""name"": ""Vila Olga, Virgin Islands (U.S.)"", ""is_tbd"": false}, ""geometry"": {""type"": ""Point"", ""coordinates"": [-64.94802428611733, 18.335728451477152]}}"
banana-bay-virgin-islands-u-s-,"Banana Bay, Virgin Islands (U.S.)",False,18.328219740149585,-64.94377624225066,"{""type"": ""Feature"", ""properties"": {""id"": ""banana-bay-virgin-islands-u-s-"", ""name"": ""Banana Bay, Virgin Islands (U.S.)"", ""is_tbd"": false}, ""geometry"": {""type"": ""Point"", ""coordinates"": [-64.94377624225066, 18.328219740149585]}}"
flamingo-bay-virgin-islands-u-s-,"Flamingo Bay, Virgin Islands (U.S.)",False,18.312830498451948,-64.95778990419826,"{""type"": ""Feature"", ""properties"": {""id"": ""flamingo-bay-virgin-islands-u-s-"", ""name"": ""Flamingo Bay, Virgin Islands (U.S.)"", ""is_tbd"": false}, ""geometry"": {""type"": ""Point"", ""coordinates"": [-64.95778990419826, 18.312830498451948]}}"
tortola-virgin-islands-u-k-,"Tortola, Virgin Islands (U.K.)",False,18.414781849275833,-64.5972432846129,"{""type"": ""Feature"", ""properties"": {""id"": ""tortola-virgin-islands-u-k-"", ""name"": ""Tortola, Virgin Islands (U.K.)"", ""is_tbd"": false}, ""geometry"": {""type"": ""Point"", ""coordinates"": [-64.5972432846129, 18.414781849275833]}}"
great-bay-virgin-islands-u-s-,"Great Bay, Virgin Islands (U.S.)",False,18.322472111215845,-64.84319037600663,"{""type"": ""Feature"", ""properties"": {""id"": ""great-bay-virgin-islands-u-s-"", ""name"": ""Great Bay, Virgin Islands (U.S.)"", ""is_tbd"": false}, ""geometry"": {""type"": ""Point"", ""coordinates"": [-64.84319037600663, 18.322472111215845]}}"
brewers-bay-virgin-islands-u-s-,"Brewer's Bay, Virgin Islands (U.S.)",False,18.342402587783717,-64.97531918865539,"{""type"": ""Feature"", ""properties"": {""id"": ""brewers-bay-virgin-islands-u-s-"", ""name"": ""Brewer's Bay, Virgin Islands (U.S.)"", ""is_tbd"": false}, ""geometry"": {""type"": ""Point"", ""coordinates"": [-64.97531918865539, 18.342402587783717]}}"
frederiksted-virgin-islands-u-s-,"Frederiksted, Virgin Islands (U.S.)",False,17.71242997088509,-64.88152042697823,"{""type"": ""Feature"", ""properties"": {""id"": ""frederiksted-virgin-islands-u-s-"", ""name"": ""Frederiksted, Virgin Islands (U.S.)"", ""is_tbd"": false}, ""geometry"": {""type"": ""Point"", ""coordinates"": [-64.88152042697823, 17.71242997088509]}}"
domburg-netherlands,"Domburg, Netherlands",False,51.56395317878603,3.496165508627551,"{""type"": ""Feature"", ""properties"": {""id"": ""domburg-netherlands"", ""name"": ""Domburg, Netherlands"", ""is_tbd"": false}, ""geometry"": {""type"": ""Point"", ""coordinates"": [3.496165508627551, 51.56395317878603]}}"
kupang-indonesia,"Kupang, Indonesia",False,-10.183308656195656,123.5833851252144,"{""type"": ""Feature"", ""properties"": {""id"": ""kupang-indonesia"", ""name"": ""Kupang, Indonesia"", ""is_tbd"": false}, ""geometry"": {""type"": ""Point"", ""coordinates"": [123.5833851252144, -10.183308656195656]}}"
taytay-philippines,"Taytay, Philippines",False,10.819603438863586,119.50038020515338,"{""type"": ""Feature"", ""properties"": {""id"": ""taytay-philippines"", ""name"": ""Taytay, Philippines"", ""is_tbd"": false}, ""geometry"": {""type"": ""Point"", ""coordinates"": [119.50038020515338, 10.819603438863586]}}"
san-jose-philippines,"San Jose, Philippines",False,12.362623239786029,121.05008613857723,"{""type"": ""Feature"", ""properties"": {""id"": ""san-jose-philippines"", ""name"": ""San Jose, Philippines"", ""is_tbd"": false}, ""geometry"": {""type"": ""Point"", ""coordinates"": [121.05008613857723, 12.362623239786029]}}"
coron-philippines,"Coron, Philippines",False,12.004960160699559,120.20067267780973,"{""type"": ""Feature"", ""properties"": {""id"": ""coron-philippines"", ""name"": ""Coron, Philippines"", ""is_tbd"": false}, ""geometry"": {""type"": ""Point"", ""coordinates"": [120.20067267780973, 12.004960160699559]}}"
el-quawef-libya,"El-Quawef, Libya",False,31.760813307797136,25.08736115072189,"{""type"": ""Feature"", ""properties"": {""id"": ""el-quawef-libya"", ""name"": ""El-Quawef, Libya"", ""is_tbd"": false}, ""geometry"": {""type"": ""Point"", ""coordinates"": [25.08736115072189, 31.760813307797136]}}"
faial-portugal,"Faial, Portugal",False,38.525099690783364,-28.647561720454593,"{""type"": ""Feature"", ""properties"": {""id"": ""faial-portugal"", ""name"": ""Faial, Portugal"", ""is_tbd"": false}, ""geometry"": {""type"": ""Point"", ""coordinates"": [-28.647561720454593, 38.525099690783364]}}"
graciosa-portugal,"Graciosa, Portugal",False,39.01102990331266,-27.963480173814336,"{""type"": ""Feature"", ""properties"": {""id"": ""graciosa-portugal"", ""name"": ""Graciosa, Portugal"", ""is_tbd"": false}, ""geometry"": {""type"": ""Point"", ""coordinates"": [-27.963480173814336, 39.01102990331266]}}"
corvo-portugal,"Corvo, Portugal",False,39.67193532519225,-31.110548256901776,"{""type"": ""Feature"", ""properties"": {""id"": ""corvo-portugal"", ""name"": ""Corvo, Portugal"", ""is_tbd"": false}, ""geometry"": {""type"": ""Point"", ""coordinates"": [-31.110548256901776, 39.67193532519225]}}"
flores-portugal,"Flores, Portugal",False,39.462211754202585,-31.128516994172585,"{""type"": ""Feature"", ""properties"": {""id"": ""flores-portugal"", ""name"": ""Flores, Portugal"", ""is_tbd"": false}, ""geometry"": {""type"": ""Point"", ""coordinates"": [-31.128516994172585, 39.462211754202585]}}"
piedra-santa-spain,"Piedra Santa, Spain",False,28.04062233001219,-15.408801567666467,"{""type"": ""Feature"", ""properties"": {""id"": ""piedra-santa-spain"", ""name"": ""Piedra Santa, Spain"", ""is_tbd"": false}, ""geometry"": {""type"": ""Point"", ""coordinates"": [-15.408801567666467, 28.04062233001219]}}"
las-caletillas-spain,"Las Caletillas, Spain",False,28.37727858251394,-16.36236534527797,"{""type"": ""Feature"", ""properties"": {""id"": ""las-caletillas-spain"", ""name"": ""Las Caletillas, Spain"", ""is_tbd"": false}, ""geometry"": {""type"": ""Point"", ""coordinates"": [-16.36236534527797, 28.37727858251394]}}"
sihanoukville-cambodia,"Sihanoukville, Cambodia",False,10.630005631197276,103.5066415352679,"{""type"": ""Feature"", ""properties"": {""id"": ""sihanoukville-cambodia"", ""name"": ""Sihanoukville, Cambodia"", ""is_tbd"": false}, ""geometry"": {""type"": ""Point"", ""coordinates"": [103.5066415352679, 10.630005631197276]}}"
kralendijk-bonaire-netherlands,"Kralendijk, Bonaire, Netherlands",False,12.150684714118114,-68.27668403743753,"{""type"": ""Feature"", ""properties"": {""id"": ""kralendijk-bonaire-netherlands"", ""name"": ""Kralendijk, Bonaire, Netherlands"", ""is_tbd"": false}, ""geometry"": {""type"": ""Point"", ""coordinates"": [-68.27668403743753, 12.150684714118114]}}"
north-salina-bonaire-sint-eustatius-and-saba,"North Salina, Bonaire, Sint Eustatius and Saba",False,12.1638160000004,-68.28414900000034,"{""type"": ""Feature"", ""properties"": {""id"": ""north-salina-bonaire-sint-eustatius-and-saba"", ""name"": ""North Salina, Bonaire, Sint Eustatius and Saba"", ""is_tbd"": false}, ""geometry"": {""type"": ""Point"", ""coordinates"": [-68.28414900000034, 12.1638160000004]}}"
ratmalana-sri-lanka,"Ratmalana, Sri Lanka",False,6.820387603783256,79.88927545353178,"{""type"": ""Feature"", ""properties"": {""id"": ""ratmalana-sri-lanka"", ""name"": ""Ratmalana, Sri Lanka"", ""is_tbd"": false}, ""geometry"": {""type"": ""Point"", ""coordinates"": [79.88927545353178, 6.820387603783256]}}"
mataram-indonesia,"Mataram, Indonesia",False,-8.586389151919366,116.08153497084551,"{""type"": ""Feature"", ""properties"": {""id"": ""mataram-indonesia"", ""name"": ""Mataram, Indonesia"", ""is_tbd"": false}, ""geometry"": {""type"": ""Point"", ""coordinates"": [116.08153497084551, -8.586389151919366]}}"
beculuk-indonesia,"Beculuk, Indonesia",False,-8.615634129813643,114.09706372041353,"{""type"": ""Feature"", ""properties"": {""id"": ""beculuk-indonesia"", ""name"": ""Beculuk, Indonesia"", ""is_tbd"": false}, ""geometry"": {""type"": ""Point"", ""coordinates"": [114.09706372041353, -8.615634129813643]}}"
toweli-indonesia,"Toweli, Indonesia",False,-1.142467701149998,119.38836856575348,"{""type"": ""Feature"", ""properties"": {""id"": ""toweli-indonesia"", ""name"": ""Toweli, Indonesia"", ""is_tbd"": false}, ""geometry"": {""type"": ""Point"", ""coordinates"": [119.38836856575348, -1.142467701149998]}}"
sangata-indonesia,"Sangata, Indonesia",False,0.326887363868111,117.55096752363566,"{""type"": ""Feature"", ""properties"": {""id"": ""sangata-indonesia"", ""name"": ""Sangata, Indonesia"", ""is_tbd"": false}, ""geometry"": {""type"": ""Point"", ""coordinates"": [117.55096752363566, 0.326887363868111]}}"
tobruk-libya,"Tobruk, Libya",False,32.079604155442446,23.960311167883617,"{""type"": ""Feature"", ""properties"": {""id"": ""tobruk-libya"", ""name"": ""Tobruk, Libya"", ""is_tbd"": false}, ""geometry"": {""type"": ""Point"", ""coordinates"": [23.960311167883617, 32.079604155442446]}}"
al-bayda-libya,"Al Bayda, Libya",False,32.88172722141822,21.74166039584776,"{""type"": ""Feature"", ""properties"": {""id"": ""al-bayda-libya"", ""name"": ""Al Bayda, Libya"", ""is_tbd"": false}, ""geometry"": {""type"": ""Point"", ""coordinates"": [21.74166039584776, 32.88172722141822]}}"
tolmeta-libya,"Tolmeta, Libya",False,32.71673198238239,20.949961737944495,"{""type"": ""Feature"", ""properties"": {""id"": ""tolmeta-libya"", ""name"": ""Tolmeta, Libya"", ""is_tbd"": false}, ""geometry"": {""type"": ""Point"", ""coordinates"": [20.949961737944495, 32.71673198238239]}}"
benghazi-libya,"Benghazi, Libya",False,32.11658375707056,20.066759238613432,"{""type"": ""Feature"", ""properties"": {""id"": ""benghazi-libya"", ""name"": ""Benghazi, Libya"", ""is_tbd"": false}, ""geometry"": {""type"": ""Point"", ""coordinates"": [20.066759238613432, 32.11658375707056]}}"
brega-libya,"Brega, Libya",False,30.378108493012235,19.576525210899817,"{""type"": ""Feature"", ""properties"": {""id"": ""brega-libya"", ""name"": ""Brega, Libya"", ""is_tbd"": false}, ""geometry"": {""type"": ""Point"", ""coordinates"": [19.576525210899817, 30.378108493012235]}}"
ras-lanuf-libya,"Ras Lanuf, Libya",False,30.586737502695293,18.41187759844718,"{""type"": ""Feature"", ""properties"": {""id"": ""ras-lanuf-libya"", ""name"": ""Ras Lanuf, Libya"", ""is_tbd"": false}, ""geometry"": {""type"": ""Point"", ""coordinates"": [18.41187759844718, 30.586737502695293]}}"
sirte-libya,"Sirte, Libya",False,31.205251640496304,16.588343734005548,"{""type"": ""Feature"", ""properties"": {""id"": ""sirte-libya"", ""name"": ""Sirte, Libya"", ""is_tbd"": false}, ""geometry"": {""type"": ""Point"", ""coordinates"": [16.588343734005548, 31.205251640496304]}}"
misuratah-libya,"Misuratah, Libya",False,32.37427884369104,15.094790104552972,"{""type"": ""Feature"", ""properties"": {""id"": ""misuratah-libya"", ""name"": ""Misuratah, Libya"", ""is_tbd"": false}, ""geometry"": {""type"": ""Point"", ""coordinates"": [15.094790104552972, 32.37427884369104]}}"
al-khums-libya,"Al Khums, Libya",False,32.64966152384897,14.26441959904531,"{""type"": ""Feature"", ""properties"": {""id"": ""al-khums-libya"", ""name"": ""Al Khums, Libya"", ""is_tbd"": false}, ""geometry"": {""type"": ""Point"", ""coordinates"": [14.26441959904531, 32.64966152384897]}}"
zawia-libya,"Zawia, Libya",False,32.774720416295295,12.529752859149395,"{""type"": ""Feature"", ""properties"": {""id"": ""zawia-libya"", ""name"": ""Zawia, Libya"", ""is_tbd"": false}, ""geometry"": {""type"": ""Point"", ""coordinates"": [12.529752859149395, 32.774720416295295]}}"
zuwara-libya,"Zuwara, Libya",False,32.93337907602355,12.083366456623823,"{""type"": ""Feature"", ""properties"": {""id"": ""zuwara-libya"", ""name"": ""Zuwara, Libya"", ""is_tbd"": false}, ""geometry"": {""type"": ""Point"", ""coordinates"": [12.083366456623823, 32.93337907602355]}}"
hermosa-beach-ca-united-states,"Hermosa Beach, CA, United States",False,33.862232632157735,-118.39954892055475,"{""type"": ""Feature"", ""properties"": {""id"": ""hermosa-beach-ca-united-states"", ""name"": ""Hermosa Beach, CA, United States"", ""is_tbd"": false}, ""geometry"": {""type"": ""Point"", ""coordinates"": [-118.39954892055475, 33.862232632157735]}}"
sandy-point-vic-australia,"Sandy Point, VIC, Australia",False,-38.82018266620627,146.11969728527944,"{""type"": ""Feature"", ""properties"": {""id"": ""sandy-point-vic-australia"", ""name"": ""Sandy Point, VIC, Australia"", ""is_tbd"": false}, ""geometry"": {""type"": ""Point"", ""coordinates"": [146.11969728527944, -38.82018266620627]}}"
four-mile-bluff-tas-australia,"Four Mile Bluff, TAS, Australia",False,-41.03327707528322,146.85016551780996,"{""type"": ""Feature"", ""properties"": {""id"": ""four-mile-bluff-tas-australia"", ""name"": ""Four Mile Bluff, TAS, Australia"", ""is_tbd"": false}, ""geometry"": {""type"": ""Point"", ""coordinates"": [146.85016551780996, -41.03327707528322]}}"
mcgaurans-beach-vic-australia,"McGaurans Beach, VIC, Australia",False,-38.44361560267599,147.07125911118302,"{""type"": ""Feature"", ""properties"": {""id"": ""mcgaurans-beach-vic-australia"", ""name"": ""McGaurans Beach, VIC, Australia"", ""is_tbd"": false}, ""geometry"": {""type"": ""Point"", ""coordinates"": [147.07125911118302, -38.44361560267599]}}"
stanley-tas-australia,"Stanley, TAS, Australia",False,-40.760375144220674,145.29411193263084,"{""type"": ""Feature"", ""properties"": {""id"": ""stanley-tas-australia"", ""name"": ""Stanley, TAS, Australia"", ""is_tbd"": false}, ""geometry"": {""type"": ""Point"", ""coordinates"": [145.29411193263084, -40.760375144220674]}}"
inverloch-vic-australia,"Inverloch, VIC, Australia",False,-38.63345276915476,145.72946318672496,"{""type"": ""Feature"", ""properties"": {""id"": ""inverloch-vic-australia"", ""name"": ""Inverloch, VIC, Australia"", ""is_tbd"": false}, ""geometry"": {""type"": ""Point"", ""coordinates"": [145.72946318672496, -38.63345276915476]}}"
boat-harbour-tas-australia,"Boat Harbour, TAS, Australia",False,-40.95086828582336,145.62379919907835,"{""type"": ""Feature"", ""properties"": {""id"": ""boat-harbour-tas-australia"", ""name"": ""Boat Harbour, TAS, Australia"", ""is_tbd"": false}, ""geometry"": {""type"": ""Point"", ""coordinates"": [145.62379919907835, -40.95086828582336]}}"
balboa-panama,"Balboa, Panama",False,8.950027090049982,-79.56667848090554,"{""type"": ""Feature"", ""properties"": {""id"": ""balboa-panama"", ""name"": ""Balboa, Panama"", ""is_tbd"": false}, ""geometry"": {""type"": ""Point"", ""coordinates"": [-79.56667848090554, 8.950027090049982]}}"
manta-ecuador,"Manta, Ecuador",False,-0.950019548909037,-80.71618938533148,"{""type"": ""Feature"", ""properties"": {""id"": ""manta-ecuador"", ""name"": ""Manta, Ecuador"", ""is_tbd"": false}, ""geometry"": {""type"": ""Point"", ""coordinates"": [-80.71618938533148, -0.950019548909037]}}"
makaha-hi-united-states,"Makaha, HI, United States",False,21.463431186887963,-158.2206478576183,"{""type"": ""Feature"", ""properties"": {""id"": ""makaha-hi-united-states"", ""name"": ""Makaha, HI, United States"", ""is_tbd"": false}, ""geometry"": {""type"": ""Point"", ""coordinates"": [-158.2206478576183, 21.463431186887963]}}"
christiansted-virgin-islands-u-s-,"Christiansted, Virgin Islands (U.S.)",False,17.746660579229843,-64.70315141271153,"{""type"": ""Feature"", ""properties"": {""id"": ""christiansted-virgin-islands-u-s-"", ""name"": ""Christiansted, Virgin Islands (U.S.)"", ""is_tbd"": false}, ""geometry"": {""type"": ""Point"", ""coordinates"": [-64.70315141271153, 17.746660579229843]}}"
carrickfergus-united-kingdom,"Carrickfergus, United Kingdom",False,54.71367039332284,-5.808173603216411,"{""type"": ""Feature"", ""properties"": {""id"": ""carrickfergus-united-kingdom"", ""name"": ""Carrickfergus, United Kingdom"", ""is_tbd"": false}, ""geometry"": {""type"": ""Point"", ""coordinates"": [-5.808173603216411, 54.71367039332284]}}"
saltcoats-united-kingdom,"Saltcoats, United Kingdom",False,55.63758019678909,-4.783516125969337,"{""type"": ""Feature"", ""properties"": {""id"": ""saltcoats-united-kingdom"", ""name"": ""Saltcoats, United Kingdom"", ""is_tbd"": false}, ""geometry"": {""type"": ""Point"", ""coordinates"": [-4.783516125969337, 55.63758019678909]}}"
douglas-isle-of-man,"Douglas, Isle of Man",False,54.15027516173659,-4.480879621608963,"{""type"": ""Feature"", ""properties"": {""id"": ""douglas-isle-of-man"", ""name"": ""Douglas, Isle of Man"", ""is_tbd"": false}, ""geometry"": {""type"": ""Point"", ""coordinates"": [-4.480879621608963, 54.15027516173659]}}"
silecroft-beach-united-kingdom,"Silecroft Beach, United Kingdom",False,54.21062739961812,-3.35714994891956,"{""type"": ""Feature"", ""properties"": {""id"": ""silecroft-beach-united-kingdom"", ""name"": ""Silecroft Beach, United Kingdom"", ""is_tbd"": false}, ""geometry"": {""type"": ""Point"", ""coordinates"": [-3.35714994891956, 54.21062739961812]}}"
groudle-bay-isle-of-man,"Groudle Bay, Isle of Man",False,54.16697942720116,-4.423897240100775,"{""type"": ""Feature"", ""properties"": {""id"": ""groudle-bay-isle-of-man"", ""name"": ""Groudle Bay, Isle of Man"", ""is_tbd"": false}, ""geometry"": {""type"": ""Point"", ""coordinates"": [-4.423897240100775, 54.16697942720116]}}"
peel-isle-of-man,"Peel, Isle of Man",False,54.22244748636314,-4.691426347455632,"{""type"": ""Feature"", ""properties"": {""id"": ""peel-isle-of-man"", ""name"": ""Peel, Isle of Man"", ""is_tbd"": false}, ""geometry"": {""type"": ""Point"", ""coordinates"": [-4.691426347455632, 54.22244748636314]}}"
ballywater-united-kingdom,"Ballywater, United Kingdom",False,54.542741580201856,-5.484394535704497,"{""type"": ""Feature"", ""properties"": {""id"": ""ballywater-united-kingdom"", ""name"": ""Ballywater, United Kingdom"", ""is_tbd"": false}, ""geometry"": {""type"": ""Point"", ""coordinates"": [-5.484394535704497, 54.542741580201856]}}"
port-grenaugh-isle-of-man,"Port Grenaugh, Isle of Man",False,54.09999306170466,-4.566670576458828,"{""type"": ""Feature"", ""properties"": {""id"": ""port-grenaugh-isle-of-man"", ""name"": ""Port Grenaugh, Isle of Man"", ""is_tbd"": false}, ""geometry"": {""type"": ""Point"", ""coordinates"": [-4.566670576458828, 54.09999306170466]}}"
hulhumale-maldives,"Hulhumale, Maldives",False,4.211942635751779,73.54015885755544,"{""type"": ""Feature"", ""properties"": {""id"": ""hulhumale-maldives"", ""name"": ""Hulhumale, Maldives"", ""is_tbd"": false}, ""geometry"": {""type"": ""Point"", ""coordinates"": [73.54015885755544, 4.211942635751779]}}"
kulhudhufushi-maldives,"Kulhudhufushi, Maldives",False,6.622441345756148,73.07140918962199,"{""type"": ""Feature"", ""properties"": {""id"": ""kulhudhufushi-maldives"", ""name"": ""Kulhudhufushi, Maldives"", ""is_tbd"": false}, ""geometry"": {""type"": ""Point"", ""coordinates"": [73.07140918962199, 6.622441345756148]}}"
eydhafushi-maldives,"Eydhafushi, Maldives",False,5.10323036500878,73.07082325253708,"{""type"": ""Feature"", ""properties"": {""id"": ""eydhafushi-maldives"", ""name"": ""Eydhafushi, Maldives"", ""is_tbd"": false}, ""geometry"": {""type"": ""Point"", ""coordinates"": [73.07082325253708, 5.10323036500878]}}"
dhangethi-maldives,"Dhangethi, Maldives",False,3.608093477293043,72.95558895917019,"{""type"": ""Feature"", ""properties"": {""id"": ""dhangethi-maldives"", ""name"": ""Dhangethi, Maldives"", ""is_tbd"": false}, ""geometry"": {""type"": ""Point"", ""coordinates"": [72.95558895917019, 3.608093477293043]}}"
gan-maldives,"Gan, Maldives",False,1.918411782935871,73.54465104187312,"{""type"": ""Feature"", ""properties"": {""id"": ""gan-maldives"", ""name"": ""Gan, Maldives"", ""is_tbd"": false}, ""geometry"": {""type"": ""Point"", ""coordinates"": [73.54465104187312, 1.918411782935871]}}"
gahdhoo-maldives,"Gahdhoo, Maldives",False,0.288802003782011,73.45549094878496,"{""type"": ""Feature"", ""properties"": {""id"": ""gahdhoo-maldives"", ""name"": ""Gahdhoo, Maldives"", ""is_tbd"": false}, ""geometry"": {""type"": ""Point"", ""coordinates"": [73.45549094878496, 0.288802003782011]}}"
diego-garcia-british-indian-ocean-territory,"Diego Garcia, British Indian Ocean Territory",False,-7.333330000000503,72.416672,"{""type"": ""Feature"", ""properties"": {""id"": ""diego-garcia-british-indian-ocean-territory"", ""name"": ""Diego Garcia, British Indian Ocean Territory"", ""is_tbd"": false}, ""geometry"": {""type"": ""Point"", ""coordinates"": [72.416672, -7.333330000000503]}}"
hithadhoo-maldives,"Hithadhoo, Maldives",False,-0.606021265123826,73.08918261453131,"{""type"": ""Feature"", ""properties"": {""id"": ""hithadhoo-maldives"", ""name"": ""Hithadhoo, Maldives"", ""is_tbd"": false}, ""geometry"": {""type"": ""Point"", ""coordinates"": [73.08918261453131, -0.606021265123826]}}"
fuvahmulah-maldives,"Fuvahmulah, Maldives",False,-0.298304384685104,73.42687768780485,"{""type"": ""Feature"", ""properties"": {""id"": ""fuvahmulah-maldives"", ""name"": ""Fuvahmulah, Maldives"", ""is_tbd"": false}, ""geometry"": {""type"": ""Point"", ""coordinates"": [73.42687768780485, -0.298304384685104]}}"
port-gentil-gabon,"Port Gentil, Gabon",False,-0.721040306475029,8.781610983118252,"{""type"": ""Feature"", ""properties"": {""id"": ""port-gentil-gabon"", ""name"": ""Port Gentil, Gabon"", ""is_tbd"": false}, ""geometry"": {""type"": ""Point"", ""coordinates"": [8.781610983118252, -0.721040306475029]}}"
lusk-ireland,"Lusk, Ireland",False,53.52625445974578,-6.165888193558025,"{""type"": ""Feature"", ""properties"": {""id"": ""lusk-ireland"", ""name"": ""Lusk, Ireland"", ""is_tbd"": false}, ""geometry"": {""type"": ""Point"", ""coordinates"": [-6.165888193558025, 53.52625445974578]}}"
aldeburgh-united-kingdom,"Aldeburgh, United Kingdom",False,52.1578426448517,1.590600452297692,"{""type"": ""Feature"", ""properties"": {""id"": ""aldeburgh-united-kingdom"", ""name"": ""Aldeburgh, United Kingdom"", ""is_tbd"": false}, ""geometry"": {""type"": ""Point"", ""coordinates"": [1.590600452297692, 52.1578426448517]}}"
port-hedland-wa-australia,"Port Hedland, WA, Australia",False,-20.31345781610387,118.57723632786723,"{""type"": ""Feature"", ""properties"": {""id"": ""port-hedland-wa-australia"", ""name"": ""Port Hedland, WA, Australia"", ""is_tbd"": false}, ""geometry"": {""type"": ""Point"", ""coordinates"": [118.57723632786723, -20.31345781610387]}}"
darwin-nt-australia,"Darwin, NT, Australia",False,-12.467490679762426,130.8431456073319,"{""type"": ""Feature"", ""properties"": {""id"": ""darwin-nt-australia"", ""name"": ""Darwin, NT, Australia"", ""is_tbd"": false}, ""geometry"": {""type"": ""Point"", ""coordinates"": [130.8431456073319, -12.467490679762426]}}"
igiugig-ak-united-states,"Igiugig, AK, United States",False,59.327800128586105,-155.8947433058731,"{""type"": ""Feature"", ""properties"": {""id"": ""igiugig-ak-united-states"", ""name"": ""Igiugig, AK, United States"", ""is_tbd"": false}, ""geometry"": {""type"": ""Point"", ""coordinates"": [-155.8947433058731, 59.327800128586105]}}"
port-alsworth-ak-united-states,"Port Alsworth, AK, United States",False,60.200371500530665,-154.3369319094411,"{""type"": ""Feature"", ""properties"": {""id"": ""port-alsworth-ak-united-states"", ""name"": ""Port Alsworth, AK, United States"", ""is_tbd"": false}, ""geometry"": {""type"": ""Point"", ""coordinates"": [-154.3369319094411, 60.200371500530665]}}"
fish-camp-ak-united-states,"Fish Camp, AK, United States",False,59.94919988638963,-154.85885536783067,"{""type"": ""Feature"", ""properties"": {""id"": ""fish-camp-ak-united-states"", ""name"": ""Fish Camp, AK, United States"", ""is_tbd"": false}, ""geometry"": {""type"": ""Point"", ""coordinates"": [-154.85885536783067, 59.94919988638963]}}"
nondalton-ak-united-states,"Nondalton, AK, United States",False,59.972649771731774,-154.84772256321745,"{""type"": ""Feature"", ""properties"": {""id"": ""nondalton-ak-united-states"", ""name"": ""Nondalton, AK, United States"", ""is_tbd"": false}, ""geometry"": {""type"": ""Point"", ""coordinates"": [-154.84772256321745, 59.972649771731774]}}"
newhalen-ak-united-states,"Newhalen, AK, United States",False,59.7181450195821,-154.899773307594,"{""type"": ""Feature"", ""properties"": {""id"": ""newhalen-ak-united-states"", ""name"": ""Newhalen, AK, United States"", ""is_tbd"": false}, ""geometry"": {""type"": ""Point"", ""coordinates"": [-154.899773307594, 59.7181450195821]}}"
kokhanok-ak-united-states,"Kokhanok, AK, United States",False,59.44215809995201,-154.75275192737027,"{""type"": ""Feature"", ""properties"": {""id"": ""kokhanok-ak-united-states"", ""name"": ""Kokhanok, AK, United States"", ""is_tbd"": false}, ""geometry"": {""type"": ""Point"", ""coordinates"": [-154.75275192737027, 59.44215809995201]}}"
pile-bay-ak-united-states,"Pile Bay, AK, United States",False,59.776054476860836,-153.88048692029113,"{""type"": ""Feature"", ""properties"": {""id"": ""pile-bay-ak-united-states"", ""name"": ""Pile Bay, AK, United States"", ""is_tbd"": false}, ""geometry"": {""type"": ""Point"", ""coordinates"": [-153.88048692029113, 59.776054476860836]}}"
illiamna-ak-united-states,"Illiamna, AK, United States",False,59.754765229743505,-154.90612095934728,"{""type"": ""Feature"", ""properties"": {""id"": ""illiamna-ak-united-states"", ""name"": ""Illiamna, AK, United States"", ""is_tbd"": false}, ""geometry"": {""type"": ""Point"", ""coordinates"": [-154.90612095934728, 59.754765229743505]}}"
pedro-bay-ak-united-states,"Pedro Bay, AK, United States",False,59.7872115404838,-154.10612152607442,"{""type"": ""Feature"", ""properties"": {""id"": ""pedro-bay-ak-united-states"", ""name"": ""Pedro Bay, AK, United States"", ""is_tbd"": false}, ""geometry"": {""type"": ""Point"", ""coordinates"": [-154.10612152607442, 59.7872115404838]}}"
williamsport-ak-united-states,"Williamsport, AK, United States",False,59.682402835634406,-153.63214725246726,"{""type"": ""Feature"", ""properties"": {""id"": ""williamsport-ak-united-states"", ""name"": ""Williamsport, AK, United States"", ""is_tbd"": false}, ""geometry"": {""type"": ""Point"", ""coordinates"": [-153.63214725246726, 59.682402835634406]}}"
mchugh-point-ak-united-states,"McHugh Point, AK, United States",False,61.01571463051166,-149.73219884335225,"{""type"": ""Feature"", ""properties"": {""id"": ""mchugh-point-ak-united-states"", ""name"": ""McHugh Point, AK, United States"", ""is_tbd"": false}, ""geometry"": {""type"": ""Point"", ""coordinates"": [-149.73219884335225, 61.01571463051166]}}"
portage-ak-united-states,"Portage, AK, United States",False,60.82828925189919,-148.98981655676278,"{""type"": ""Feature"", ""properties"": {""id"": ""portage-ak-united-states"", ""name"": ""Portage, AK, United States"", ""is_tbd"": false}, ""geometry"": {""type"": ""Point"", ""coordinates"": [-148.98981655676278, 60.82828925189919]}}"
matara-sri-lanka,"Matara, Sri Lanka",False,5.940833037393244,80.53986093015084,"{""type"": ""Feature"", ""properties"": {""id"": ""matara-sri-lanka"", ""name"": ""Matara, Sri Lanka"", ""is_tbd"": false}, ""geometry"": {""type"": ""Point"", ""coordinates"": [80.53986093015084, 5.940833037393244]}}"
kuakata-bangladesh,"Kuakata, Bangladesh",False,21.816735551700102,90.11661195839058,"{""type"": ""Feature"", ""properties"": {""id"": ""kuakata-bangladesh"", ""name"": ""Kuakata, Bangladesh"", ""is_tbd"": false}, ""geometry"": {""type"": ""Point"", ""coordinates"": [90.11661195839058, 21.816735551700102]}}"
ngwe-saung-myanmar,"Ngwe Saung, Myanmar",False,16.858028367792194,94.39121830521923,"{""type"": ""Feature"", ""properties"": {""id"": ""ngwe-saung-myanmar"", ""name"": ""Ngwe Saung, Myanmar"", ""is_tbd"": false}, ""geometry"": {""type"": ""Point"", ""coordinates"": [94.39121830521923, 16.858028367792194]}}"
yanbu-saudi-arabia,"Yanbu, Saudi Arabia",False,24.070555564820936,38.10698083375123,"{""type"": ""Feature"", ""properties"": {""id"": ""yanbu-saudi-arabia"", ""name"": ""Yanbu, Saudi Arabia"", ""is_tbd"": false}, ""geometry"": {""type"": ""Point"", ""coordinates"": [38.10698083375123, 24.070555564820936]}}"
toulon-france,"Toulon, France",False,43.12529261338072,5.930343471732967,"{""type"": ""Feature"", ""properties"": {""id"": ""toulon-france"", ""name"": ""Toulon, France"", ""is_tbd"": false}, ""geometry"": {""type"": ""Point"", ""coordinates"": [5.930343471732967, 43.12529261338072]}}"
buenaventura-colombia,"Buenaventura, Colombia",False,3.883674880769303,-77.0403008760841,"{""type"": ""Feature"", ""properties"": {""id"": ""buenaventura-colombia"", ""name"": ""Buenaventura, Colombia"", ""is_tbd"": false}, ""geometry"": {""type"": ""Point"", ""coordinates"": [-77.0403008760841, 3.883674880769303]}}"
puerto-chacabuco-chile,"Puerto Chacabuco, Chile",False,-45.45830050296172,-72.805098798216,"{""type"": ""Feature"", ""properties"": {""id"": ""puerto-chacabuco-chile"", ""name"": ""Puerto Chacabuco, Chile"", ""is_tbd"": false}, ""geometry"": {""type"": ""Point"", ""coordinates"": [-72.805098798216, -45.45830050296172]}}"
quellon-chile,"Quellon, Chile",False,-43.117473610870405,-73.47946355486467,"{""type"": ""Feature"", ""properties"": {""id"": ""quellon-chile"", ""name"": ""Quellon, Chile"", ""is_tbd"": false}, ""geometry"": {""type"": ""Point"", ""coordinates"": [-73.47946355486467, -43.117473610870405]}}"
tahuna-indonesia,"Tahuna, Indonesia",False,3.611114813225133,125.48550780117085,"{""type"": ""Feature"", ""properties"": {""id"": ""tahuna-indonesia"", ""name"": ""Tahuna, Indonesia"", ""is_tbd"": false}, ""geometry"": {""type"": ""Point"", ""coordinates"": [125.48550780117085, 3.611114813225133]}}"
ludag-united-kingdom,"Ludag, United Kingdom",False,57.10553545436941,-7.328143229579688,"{""type"": ""Feature"", ""properties"": {""id"": ""ludag-united-kingdom"", ""name"": ""Ludag, United Kingdom"", ""is_tbd"": false}, ""geometry"": {""type"": ""Point"", ""coordinates"": [-7.328143229579688, 57.10553545436941]}}"
balla-united-kingdom,"Balla, United Kingdom",False,57.0815220684469,-7.312176444016704,"{""type"": ""Feature"", ""properties"": {""id"": ""balla-united-kingdom"", ""name"": ""Balla, United Kingdom"", ""is_tbd"": false}, ""geometry"": {""type"": ""Point"", ""coordinates"": [-7.312176444016704, 57.0815220684469]}}"
north-bay-united-kingdom,"North Bay, United Kingdom",False,57.02529080676931,-7.449481034248839,"{""type"": ""Feature"", ""properties"": {""id"": ""north-bay-united-kingdom"", ""name"": ""North Bay, United Kingdom"", ""is_tbd"": false}, ""geometry"": {""type"": ""Point"", ""coordinates"": [-7.449481034248839, 57.02529080676931]}}"
bay-of-tuquoy-united-kingdom,"Bay of Tuquoy, United Kingdom",False,59.27976761462974,-2.939523291645224,"{""type"": ""Feature"", ""properties"": {""id"": ""bay-of-tuquoy-united-kingdom"", ""name"": ""Bay of Tuquoy, United Kingdom"", ""is_tbd"": false}, ""geometry"": {""type"": ""Point"", ""coordinates"": [-2.939523291645224, 59.27976761462974]}}"
aikerness-bay-united-kingdom,"Aikerness Bay, United Kingdom",False,59.11804019999936,-3.095076000000142,"{""type"": ""Feature"", ""properties"": {""id"": ""aikerness-bay-united-kingdom"", ""name"": ""Aikerness Bay, United Kingdom"", ""is_tbd"": false}, ""geometry"": {""type"": ""Point"", ""coordinates"": [-3.095076000000142, 59.11804019999936]}}"
portachur-point-united-kingdom,"Portachur Point, United Kingdom",False,55.74276545167681,-4.943867574873866,"{""type"": ""Feature"", ""properties"": {""id"": ""portachur-point-united-kingdom"", ""name"": ""Portachur Point, United Kingdom"", ""is_tbd"": false}, ""geometry"": {""type"": ""Point"", ""coordinates"": [-4.943867574873866, 55.74276545167681]}}"
coilleag-united-kingdom,"Coilleag, United Kingdom",False,57.07361367890789,-7.302215513573107,"{""type"": ""Feature"", ""properties"": {""id"": ""coilleag-united-kingdom"", ""name"": ""Coilleag, United Kingdom"", ""is_tbd"": false}, ""geometry"": {""type"": ""Point"", ""coordinates"": [-7.302215513573107, 57.07361367890789]}}"
ardbeg-point-united-kingdom,"Ardbeg Point, United Kingdom",False,55.858590024607395,-5.063594052558523,"{""type"": ""Feature"", ""properties"": {""id"": ""ardbeg-point-united-kingdom"", ""name"": ""Ardbeg Point, United Kingdom"", ""is_tbd"": false}, ""geometry"": {""type"": ""Point"", ""coordinates"": [-5.063594052558523, 55.858590024607395]}}"
ardyne-point-united-kingdom,"Ardyne Point, United Kingdom",False,55.86941315469073,-5.019990567822677,"{""type"": ""Feature"", ""properties"": {""id"": ""ardyne-point-united-kingdom"", ""name"": ""Ardyne Point, United Kingdom"", ""is_tbd"": false}, ""geometry"": {""type"": ""Point"", ""coordinates"": [-5.019990567822677, 55.86941315469073]}}"
ardgour-united-kingdom,"Ardgour, United Kingdom",False,56.72156793829049,-5.233662291455637,"{""type"": ""Feature"", ""properties"": {""id"": ""ardgour-united-kingdom"", ""name"": ""Ardgour, United Kingdom"", ""is_tbd"": false}, ""geometry"": {""type"": ""Point"", ""coordinates"": [-5.233662291455637, 56.72156793829049]}}"
raglan-new-zealand,"Raglan, New Zealand",False,-37.8013819587598,174.87182535450324,"{""type"": ""Feature"", ""properties"": {""id"": ""raglan-new-zealand"", ""name"": ""Raglan, New Zealand"", ""is_tbd"": false}, ""geometry"": {""type"": ""Point"", ""coordinates"": [174.87182535450324, -37.8013819587598]}}"
ola-russia,"Ola, Russia",False,59.5833440417752,151.2833655022884,"{""type"": ""Feature"", ""properties"": {""id"": ""ola-russia"", ""name"": ""Ola, Russia"", ""is_tbd"": false}, ""geometry"": {""type"": ""Point"", ""coordinates"": [151.2833655022884, 59.5833440417752]}}"
okha-russia,"Okha, Russia",False,53.5775487202457,142.94245344231877,"{""type"": ""Feature"", ""properties"": {""id"": ""okha-russia"", ""name"": ""Okha, Russia"", ""is_tbd"": false}, ""geometry"": {""type"": ""Point"", ""coordinates"": [142.94245344231877, 53.5775487202457]}}"
ust-bolsheretsk-russia,"Ust-Bolsheretsk, Russia",False,52.812414384362135,156.28707289511507,"{""type"": ""Feature"", ""properties"": {""id"": ""ust-bolsheretsk-russia"", ""name"": ""Ust-Bolsheretsk, Russia"", ""is_tbd"": false}, ""geometry"": {""type"": ""Point"", ""coordinates"": [156.28707289511507, 52.812414384362135]}}"
porthcressa-beach-united-kingdom,"Porthcressa Beach, United Kingdom",False,49.919905077432276,-6.308173249011959,"{""type"": ""Feature"", ""properties"": {""id"": ""porthcressa-beach-united-kingdom"", ""name"": ""Porthcressa Beach, United Kingdom"", ""is_tbd"": false}, ""geometry"": {""type"": ""Point"", ""coordinates"": [-6.308173249011959, 49.919905077432276]}}"
mogadishu-somalia,"Mogadishu, Somalia",False,2.041189900937192,45.344182738099455,"{""type"": ""Feature"", ""properties"": {""id"": ""mogadishu-somalia"", ""name"": ""Mogadishu, Somalia"", ""is_tbd"": false}, ""geometry"": {""type"": ""Point"", ""coordinates"": [45.344182738099455, 2.041189900937192]}}"
satun-thailand,"Satun, Thailand",False,6.613467,100.06611799999914,"{""type"": ""Feature"", ""properties"": {""id"": ""satun-thailand"", ""name"": ""Satun, Thailand"", ""is_tbd"": false}, ""geometry"": {""type"": ""Point"", ""coordinates"": [100.06611799999914, 6.613467]}}"
rayong-thailand,"Rayong, Thailand",False,12.670662766448473,101.27734623952158,"{""type"": ""Feature"", ""properties"": {""id"": ""rayong-thailand"", ""name"": ""Rayong, Thailand"", ""is_tbd"": false}, ""geometry"": {""type"": ""Point"", ""coordinates"": [101.27734623952158, 12.670662766448473]}}"
cherating-malaysia,"Cherating, Malaysia",False,4.130238298773818,103.39365333405976,"{""type"": ""Feature"", ""properties"": {""id"": ""cherating-malaysia"", ""name"": ""Cherating, Malaysia"", ""is_tbd"": false}, ""geometry"": {""type"": ""Point"", ""coordinates"": [103.39365333405976, 4.130238298773818]}}"
davao-philippines,"Davao, Philippines",False,7.079988883160643,125.61277821882337,"{""type"": ""Feature"", ""properties"": {""id"": ""davao-philippines"", ""name"": ""Davao, Philippines"", ""is_tbd"": false}, ""geometry"": {""type"": ""Point"", ""coordinates"": [125.61277821882337, 7.079988883160643]}}"
ilyich-russia,"Ilyich, Russia",False,45.42360850409014,36.77084896777956,"{""type"": ""Feature"", ""properties"": {""id"": ""ilyich-russia"", ""name"": ""Ilyich, Russia"", ""is_tbd"": false}, ""geometry"": {""type"": ""Point"", ""coordinates"": [36.77084896777956, 45.42360850409014]}}"
kerch-ukraine,"Kerch, Ukraine",False,45.35698172208115,36.477392144417024,"{""type"": ""Feature"", ""properties"": {""id"": ""kerch-ukraine"", ""name"": ""Kerch, Ukraine"", ""is_tbd"": false}, ""geometry"": {""type"": ""Point"", ""coordinates"": [36.477392144417024, 45.35698172208115]}}"
masbate-city-philippines,"Masbate City, Philippines",False,12.36672505260177,123.61668588287377,"{""type"": ""Feature"", ""properties"": {""id"": ""masbate-city-philippines"", ""name"": ""Masbate City, Philippines"", ""is_tbd"": false}, ""geometry"": {""type"": ""Point"", ""coordinates"": [123.61668588287377, 12.36672505260177]}}"
legazpi-city-philippines,"Legazpi City, Philippines",False,13.139089344982024,123.74373657411985,"{""type"": ""Feature"", ""properties"": {""id"": ""legazpi-city-philippines"", ""name"": ""Legazpi City, Philippines"", ""is_tbd"": false}, ""geometry"": {""type"": ""Point"", ""coordinates"": [123.74373657411985, 13.139089344982024]}}"
calbayog-philippines,"Calbayog, Philippines",False,12.069906190827878,124.60027893608729,"{""type"": ""Feature"", ""properties"": {""id"": ""calbayog-philippines"", ""name"": ""Calbayog, Philippines"", ""is_tbd"": false}, ""geometry"": {""type"": ""Point"", ""coordinates"": [124.60027893608729, 12.069906190827878]}}"
ormoc-philippines,"Ormoc, Philippines",False,11.006888634178475,124.61277892723209,"{""type"": ""Feature"", ""properties"": {""id"": ""ormoc-philippines"", ""name"": ""Ormoc, Philippines"", ""is_tbd"": false}, ""geometry"": {""type"": ""Point"", ""coordinates"": [124.61277892723209, 11.006888634178475]}}"
cebu-philippines,"Cebu, Philippines",False,10.310033388932034,123.89461537348717,"{""type"": ""Feature"", ""properties"": {""id"": ""cebu-philippines"", ""name"": ""Cebu, Philippines"", ""is_tbd"": false}, ""geometry"": {""type"": ""Point"", ""coordinates"": [123.89461537348717, 10.310033388932034]}}"
cadiz-city-philippines,"Cadiz City, Philippines",False,10.950026359206582,123.29998688847635,"{""type"": ""Feature"", ""properties"": {""id"": ""cadiz-city-philippines"", ""name"": ""Cadiz City, Philippines"", ""is_tbd"": false}, ""geometry"": {""type"": ""Point"", ""coordinates"": [123.29998688847635, 10.950026359206582]}}"
dumaguete-philippines,"Dumaguete, Philippines",False,9.295611105669924,123.28143221412073,"{""type"": ""Feature"", ""properties"": {""id"": ""dumaguete-philippines"", ""name"": ""Dumaguete, Philippines"", ""is_tbd"": false}, ""geometry"": {""type"": ""Point"", ""coordinates"": [123.28143221412073, 9.295611105669924]}}"
ozamiz-city-philippines,"Ozamiz City, Philippines",False,8.15002871017614,123.84998649885156,"{""type"": ""Feature"", ""properties"": {""id"": ""ozamiz-city-philippines"", ""name"": ""Ozamiz City, Philippines"", ""is_tbd"": false}, ""geometry"": {""type"": ""Point"", ""coordinates"": [123.84998649885156, 8.15002871017614]}}"
cagayan-de-oro-philippines,"Cagayan de Oro, Philippines",False,8.454228346754538,124.6319195386728,"{""type"": ""Feature"", ""properties"": {""id"": ""cagayan-de-oro-philippines"", ""name"": ""Cagayan de Oro, Philippines"", ""is_tbd"": false}, ""geometry"": {""type"": ""Point"", ""coordinates"": [124.6319195386728, 8.454228346754538]}}"
butuan-city-philippines,"Butuan City, Philippines",False,8.947615403087521,125.54061030119786,"{""type"": ""Feature"", ""properties"": {""id"": ""butuan-city-philippines"", ""name"": ""Butuan City, Philippines"", ""is_tbd"": false}, ""geometry"": {""type"": ""Point"", ""coordinates"": [125.54061030119786, 8.947615403087521]}}"
san-jose-de-buenavista-philippines,"San Jose de Buenavista, Philippines",False,10.748806024464415,121.94129644473541,"{""type"": ""Feature"", ""properties"": {""id"": ""san-jose-de-buenavista-philippines"", ""name"": ""San Jose de Buenavista, Philippines"", ""is_tbd"": false}, ""geometry"": {""type"": ""Point"", ""coordinates"": [121.94129644473541, 10.748806024464415]}}"
santiago-de-cuba-cuba,"Santiago de Cuba, Cuba",False,20.028793830551784,-75.82897360919968,"{""type"": ""Feature"", ""properties"": {""id"": ""santiago-de-cuba-cuba"", ""name"": ""Santiago de Cuba, Cuba"", ""is_tbd"": false}, ""geometry"": {""type"": ""Point"", ""coordinates"": [-75.82897360919968, 20.028793830551784]}}"
killala-ireland,"Killala, Ireland",False,54.20682940735113,-9.23219461510775,"{""type"": ""Feature"", ""properties"": {""id"": ""killala-ireland"", ""name"": ""Killala, Ireland"", ""is_tbd"": false}, ""geometry"": {""type"": ""Point"", ""coordinates"": [-9.23219461510775, 54.20682940735113]}}"
cork-ireland,"Cork, Ireland",False,51.89833468681305,-8.472771324965343,"{""type"": ""Feature"", ""properties"": {""id"": ""cork-ireland"", ""name"": ""Cork, Ireland"", ""is_tbd"": false}, ""geometry"": {""type"": ""Point"", ""coordinates"": [-8.472771324965343, 51.89833468681305]}}"
milton-nl-canada,"Milton, NL, Canada",False,48.20761257904667,-53.96023910121645,"{""type"": ""Feature"", ""properties"": {""id"": ""milton-nl-canada"", ""name"": ""Milton, NL, Canada"", ""is_tbd"": false}, ""geometry"": {""type"": ""Point"", ""coordinates"": [-53.96023910121645, 48.20761257904667]}}"
pacific-city-or-united-states,"Pacific City, OR, United States",False,45.201924825052444,-123.9626309171155,"{""type"": ""Feature"", ""properties"": {""id"": ""pacific-city-or-united-states"", ""name"": ""Pacific City, OR, United States"", ""is_tbd"": false}, ""geometry"": {""type"": ""Point"", ""coordinates"": [-123.9626309171155, 45.201924825052444]}}"
labuan-bajo-indonesia,"Labuan Bajo, Indonesia",False,-8.475551000000419,119.90756399999964,"{""type"": ""Feature"", ""properties"": {""id"": ""labuan-bajo-indonesia"", ""name"": ""Labuan Bajo, Indonesia"", ""is_tbd"": false}, ""geometry"": {""type"": ""Point"", ""coordinates"": [119.90756399999964, -8.475551000000419]}}"
sape-indonesia,"Sape, Indonesia",False,-8.505600000000262,118.97619999999958,"{""type"": ""Feature"", ""properties"": {""id"": ""sape-indonesia"", ""name"": ""Sape, Indonesia"", ""is_tbd"": false}, ""geometry"": {""type"": ""Point"", ""coordinates"": [118.97619999999958, -8.505600000000262]}}"
ende-indonesia,"Ende, Indonesia",False,-8.845699000000248,121.64273999999965,"{""type"": ""Feature"", ""properties"": {""id"": ""ende-indonesia"", ""name"": ""Ende, Indonesia"", ""is_tbd"": false}, ""geometry"": {""type"": ""Point"", ""coordinates"": [121.64273999999965, -8.845699000000248]}}"
sumbawa-besar-indonesia,"Sumbawa Besar, Indonesia",False,-8.84115000000092,118.08221700000053,"{""type"": ""Feature"", ""properties"": {""id"": ""sumbawa-besar-indonesia"", ""name"": ""Sumbawa Besar, Indonesia"", ""is_tbd"": false}, ""geometry"": {""type"": ""Point"", ""coordinates"": [118.08221700000053, -8.84115000000092]}}"
bima-indonesia,"Bima, Indonesia",False,-8.464266,118.74490299999954,"{""type"": ""Feature"", ""properties"": {""id"": ""bima-indonesia"", ""name"": ""Bima, Indonesia"", ""is_tbd"": false}, ""geometry"": {""type"": ""Point"", ""coordinates"": [118.74490299999954, -8.464266]}}"
saraemee-indonesia,"Saraemee, Indonesia",False,-8.796931179918277,118.71180654503641,"{""type"": ""Feature"", ""properties"": {""id"": ""saraemee-indonesia"", ""name"": ""Saraemee, Indonesia"", ""is_tbd"": false}, ""geometry"": {""type"": ""Point"", ""coordinates"": [118.71180654503641, -8.796931179918277]}}"
waingapu-indonesia,"Waingapu, Indonesia",False,-9.64615484323023,120.25301639072892,"{""type"": ""Feature"", ""properties"": {""id"": ""waingapu-indonesia"", ""name"": ""Waingapu, Indonesia"", ""is_tbd"": false}, ""geometry"": {""type"": ""Point"", ""coordinates"": [120.25301639072892, -9.64615484323023]}}"
gav-spain,"Gavá, Spain",False,41.304002941820244,2.001342348824283,"{""type"": ""Feature"", ""properties"": {""id"": ""gav-spain"", ""name"": ""Gavá, Spain"", ""is_tbd"": false}, ""geometry"": {""type"": ""Point"", ""coordinates"": [2.001342348824283, 41.304002941820244]}}"
fomboni-moheli-comoros,"Fomboni Moheli, Comoros",False,-12.288236282174532,43.73959403105522,"{""type"": ""Feature"", ""properties"": {""id"": ""fomboni-moheli-comoros"", ""name"": ""Fomboni Moheli, Comoros"", ""is_tbd"": false}, ""geometry"": {""type"": ""Point"", ""coordinates"": [43.73959403105522, -12.288236282174532]}}"
mutsamudu-comoros,"Mutsamudu, Comoros",False,-12.16665664973713,44.400042781936996,"{""type"": ""Feature"", ""properties"": {""id"": ""mutsamudu-comoros"", ""name"": ""Mutsamudu, Comoros"", ""is_tbd"": false}, ""geometry"": {""type"": ""Point"", ""coordinates"": [44.400042781936996, -12.16665664973713]}}"
chindini-comoros,"Chindini, Comoros",False,-11.923498177297583,43.48910592725337,"{""type"": ""Feature"", ""properties"": {""id"": ""chindini-comoros"", ""name"": ""Chindini, Comoros"", ""is_tbd"": false}, ""geometry"": {""type"": ""Point"", ""coordinates"": [43.48910592725337, -11.923498177297583]}}"
mouly-new-caledonia,"Mouly, New Caledonia",False,-20.70593760646555,166.48901879296093,"{""type"": ""Feature"", ""properties"": {""id"": ""mouly-new-caledonia"", ""name"": ""Mouly, New Caledonia"", ""is_tbd"": false}, ""geometry"": {""type"": ""Point"", ""coordinates"": [166.48901879296093, -20.70593760646555]}}"
xepenehe-new-caledonia,"Xepenehe, New Caledonia",False,-20.7809160007802,167.1513230112785,"{""type"": ""Feature"", ""properties"": {""id"": ""xepenehe-new-caledonia"", ""name"": ""Xepenehe, New Caledonia"", ""is_tbd"": false}, ""geometry"": {""type"": ""Point"", ""coordinates"": [167.1513230112785, -20.7809160007802]}}"
poindimie-new-caledonia,"Poindimie, New Caledonia",False,-20.945878679076127,165.34155866833254,"{""type"": ""Feature"", ""properties"": {""id"": ""poindimie-new-caledonia"", ""name"": ""Poindimie, New Caledonia"", ""is_tbd"": false}, ""geometry"": {""type"": ""Point"", ""coordinates"": [165.34155866833254, -20.945878679076127]}}"
angra-do-heroismo-portugal,"Angra do Heroismo, Portugal",False,38.65852273411055,-27.215824453460687,"{""type"": ""Feature"", ""properties"": {""id"": ""angra-do-heroismo-portugal"", ""name"": ""Angra do Heroismo, Portugal"", ""is_tbd"": false}, ""geometry"": {""type"": ""Point"", ""coordinates"": [-27.215824453460687, 38.65852273411055]}}"
vila-do-porto-portugal,"Vila do Porto, Portugal",False,36.95676381760329,-25.14126537622283,"{""type"": ""Feature"", ""properties"": {""id"": ""vila-do-porto-portugal"", ""name"": ""Vila do Porto, Portugal"", ""is_tbd"": false}, ""geometry"": {""type"": ""Point"", ""coordinates"": [-25.14126537622283, 36.95676381760329]}}"
sao-mateus-portugal,"Sao Mateus, Portugal",False,38.43229047782683,-28.46123372745104,"{""type"": ""Feature"", ""properties"": {""id"": ""sao-mateus-portugal"", ""name"": ""Sao Mateus, Portugal"", ""is_tbd"": false}, ""geometry"": {""type"": ""Point"", ""coordinates"": [-28.46123372745104, 38.43229047782683]}}"
velas-portugal,"Velas, Portugal",False,38.683845455403926,-28.2131870281707,"{""type"": ""Feature"", ""properties"": {""id"": ""velas-portugal"", ""name"": ""Velas, Portugal"", ""is_tbd"": false}, ""geometry"": {""type"": ""Point"", ""coordinates"": [-28.2131870281707, 38.683845455403926]}}"
porto-santo-portugal,"Porto Santo, Portugal",False,33.047316301636776,-16.347668090064676,"{""type"": ""Feature"", ""properties"": {""id"": ""porto-santo-portugal"", ""name"": ""Porto Santo, Portugal"", ""is_tbd"": false}, ""geometry"": {""type"": ""Point"", ""coordinates"": [-16.347668090064676, 33.047316301636776]}}"
funchal-portugal,"Funchal, Portugal",False,32.64686582848514,-16.908946989325337,"{""type"": ""Feature"", ""properties"": {""id"": ""funchal-portugal"", ""name"": ""Funchal, Portugal"", ""is_tbd"": false}, ""geometry"": {""type"": ""Point"", ""coordinates"": [-16.908946989325337, 32.64686582848514]}}"
toco-trinidad-and-tobago,"Toco, Trinidad and Tobago",False,10.831137615524929,-60.94968727482579,"{""type"": ""Feature"", ""properties"": {""id"": ""toco-trinidad-and-tobago"", ""name"": ""Toco, Trinidad and Tobago"", ""is_tbd"": false}, ""geometry"": {""type"": ""Point"", ""coordinates"": [-60.94968727482579, 10.831137615524929]}}"
pigeon-point-trinidad-and-tobago,"Pigeon Point, Trinidad and Tobago",False,11.16540972374498,-60.84031235230797,"{""type"": ""Feature"", ""properties"": {""id"": ""pigeon-point-trinidad-and-tobago"", ""name"": ""Pigeon Point, Trinidad and Tobago"", ""is_tbd"": false}, ""geometry"": {""type"": ""Point"", ""coordinates"": [-60.84031235230797, 11.16540972374498]}}"
kaliko-haiti,"Kaliko, Haiti",False,18.86458746066303,-72.60871221858814,"{""type"": ""Feature"", ""properties"": {""id"": ""kaliko-haiti"", ""name"": ""Kaliko, Haiti"", ""is_tbd"": false}, ""geometry"": {""type"": ""Point"", ""coordinates"": [-72.60871221858814, 18.86458746066303]}}"
huahine-french-polynesia,"Huahine, French Polynesia",False,-16.730055979033075,-151.0000690389311,"{""type"": ""Feature"", ""properties"": {""id"": ""huahine-french-polynesia"", ""name"": ""Huahine, French Polynesia"", ""is_tbd"": false}, ""geometry"": {""type"": ""Point"", ""coordinates"": [-151.0000690389311, -16.730055979033075]}}"
moorea-french-polynesia,"Moorea, French Polynesia",False,-17.538774974102118,-149.82956205562922,"{""type"": ""Feature"", ""properties"": {""id"": ""moorea-french-polynesia"", ""name"": ""Moorea, French Polynesia"", ""is_tbd"": false}, ""geometry"": {""type"": ""Point"", ""coordinates"": [-149.82956205562922, -17.538774974102118]}}"
uturoa-french-polynesia,"Uturoa, French Polynesia",False,-16.73090937041819,-151.4430374751281,"{""type"": ""Feature"", ""properties"": {""id"": ""uturoa-french-polynesia"", ""name"": ""Uturoa, French Polynesia"", ""is_tbd"": false}, ""geometry"": {""type"": ""Point"", ""coordinates"": [-151.4430374751281, -16.73090937041819]}}"
vaitape-french-polynesia,"Vaitape, French Polynesia",False,-16.506324613958466,-151.7495313986299,"{""type"": ""Feature"", ""properties"": {""id"": ""vaitape-french-polynesia"", ""name"": ""Vaitape, French Polynesia"", ""is_tbd"": false}, ""geometry"": {""type"": ""Point"", ""coordinates"": [-151.7495313986299, -16.506324613958466]}}"
nasugbu-philippines,"Nasugbu, Philippines",False,14.088187386038742,120.62301068928154,"{""type"": ""Feature"", ""properties"": {""id"": ""nasugbu-philippines"", ""name"": ""Nasugbu, Philippines"", ""is_tbd"": false}, ""geometry"": {""type"": ""Point"", ""coordinates"": [120.62301068928154, 14.088187386038742]}}"
pinamalayan-philippines,"Pinamalayan, Philippines",False,13.045778897500922,121.46453896997501,"{""type"": ""Feature"", ""properties"": {""id"": ""pinamalayan-philippines"", ""name"": ""Pinamalayan, Philippines"", ""is_tbd"": false}, ""geometry"": {""type"": ""Point"", ""coordinates"": [121.46453896997501, 13.045778897500922]}}"
roxas-city-philippines,"Roxas City, Philippines",False,11.583305826411662,122.74998727810134,"{""type"": ""Feature"", ""properties"": {""id"": ""roxas-city-philippines"", ""name"": ""Roxas City, Philippines"", ""is_tbd"": false}, ""geometry"": {""type"": ""Point"", ""coordinates"": [122.74998727810134, 11.583305826411662]}}"
morro-bay-ca-united-states,"Morro Bay, CA, United States",False,35.3666813511006,-120.84720343661348,"{""type"": ""Feature"", ""properties"": {""id"": ""morro-bay-ca-united-states"", ""name"": ""Morro Bay, CA, United States"", ""is_tbd"": false}, ""geometry"": {""type"": ""Point"", ""coordinates"": [-120.84720343661348, 35.3666813511006]}}"
porthcurno-united-kingdom,"Porthcurno, United Kingdom",False,50.043048657721435,-5.654511602696961,"{""type"": ""Feature"", ""properties"": {""id"": ""porthcurno-united-kingdom"", ""name"": ""Porthcurno, United Kingdom"", ""is_tbd"": false}, ""geometry"": {""type"": ""Point"", ""coordinates"": [-5.654511602696961, 50.043048657721435]}}"
estepona-spain,"Estepona, Spain",False,36.42710220192439,-5.145869384899948,"{""type"": ""Feature"", ""properties"": {""id"": ""estepona-spain"", ""name"": ""Estepona, Spain"", ""is_tbd"": false}, ""geometry"": {""type"": ""Point"", ""coordinates"": [-5.145869384899948, 36.42710220192439]}}"
fujairah-united-arab-emirates,"Fujairah, United Arab Emirates",False,25.12169311729696,56.33372573425405,"{""type"": ""Feature"", ""properties"": {""id"": ""fujairah-united-arab-emirates"", ""name"": ""Fujairah, United Arab Emirates"", ""is_tbd"": false}, ""geometry"": {""type"": ""Point"", ""coordinates"": [56.33372573425405, 25.12169311729696]}}"
penang-malaysia,"Penang, Malaysia",False,5.368393581488473,100.40982400223058,"{""type"": ""Feature"", ""properties"": {""id"": ""penang-malaysia"", ""name"": ""Penang, Malaysia"", ""is_tbd"": false}, ""geometry"": {""type"": ""Point"", ""coordinates"": [100.40982400223058, 5.368393581488473]}}"
songkhla-thailand,"Songkhla, Thailand",False,7.198819999999446,100.5951000000003,"{""type"": ""Feature"", ""properties"": {""id"": ""songkhla-thailand"", ""name"": ""Songkhla, Thailand"", ""is_tbd"": false}, ""geometry"": {""type"": ""Point"", ""coordinates"": [100.5951000000003, 7.198819999999446]}}"
island-park-ny-united-states,"Island Park, NY, United States",False,40.60030327678829,-73.6559282736054,"{""type"": ""Feature"", ""properties"": {""id"": ""island-park-ny-united-states"", ""name"": ""Island Park, NY, United States"", ""is_tbd"": false}, ""geometry"": {""type"": ""Point"", ""coordinates"": [-73.6559282736054, 40.60030327678829]}}"
danang-vietnam,"Danang, Vietnam",False,16.051559827539638,108.21474366875417,"{""type"": ""Feature"", ""properties"": {""id"": ""danang-vietnam"", ""name"": ""Danang, Vietnam"", ""is_tbd"": false}, ""geometry"": {""type"": ""Point"", ""coordinates"": [108.21474366875417, 16.051559827539638]}}"
mersing-malaysia,"Mersing, Malaysia",False,2.295511672819276,103.84990301084824,"{""type"": ""Feature"", ""properties"": {""id"": ""mersing-malaysia"", ""name"": ""Mersing, Malaysia"", ""is_tbd"": false}, ""geometry"": {""type"": ""Point"", ""coordinates"": [103.84990301084824, 2.295511672819276]}}"
tuas-singapore,"Tuas, Singapore",False,1.338192522185158,103.64707112328632,"{""type"": ""Feature"", ""properties"": {""id"": ""tuas-singapore"", ""name"": ""Tuas, Singapore"", ""is_tbd"": false}, ""geometry"": {""type"": ""Point"", ""coordinates"": [103.64707112328632, 1.338192522185158]}}"
tuckerton-nj-united-states,"Tuckerton, NJ, United States",False,39.60388495499803,-74.33791021235805,"{""type"": ""Feature"", ""properties"": {""id"": ""tuckerton-nj-united-states"", ""name"": ""Tuckerton, NJ, United States"", ""is_tbd"": false}, ""geometry"": {""type"": ""Point"", ""coordinates"": [-74.33791021235805, 39.60388495499803]}}"
boca-raton-fl-united-states,"Boca Raton, FL, United States",False,26.350323169523403,-80.08894373592818,"{""type"": ""Feature"", ""properties"": {""id"": ""boca-raton-fl-united-states"", ""name"": ""Boca Raton, FL, United States"", ""is_tbd"": false}, ""geometry"": {""type"": ""Point"", ""coordinates"": [-80.08894373592818, 26.350323169523403]}}"
naha-japan,"Naha, Japan",False,26.21241384638718,127.68055019149426,"{""type"": ""Feature"", ""properties"": {""id"": ""naha-japan"", ""name"": ""Naha, Japan"", ""is_tbd"": false}, ""geometry"": {""type"": ""Point"", ""coordinates"": [127.68055019149426, 26.21241384638718]}}"
toucheng-taiwan,"Toucheng, Taiwan",False,24.863592858849902,121.80145279380189,"{""type"": ""Feature"", ""properties"": {""id"": ""toucheng-taiwan"", ""name"": ""Toucheng, Taiwan"", ""is_tbd"": false}, ""geometry"": {""type"": ""Point"", ""coordinates"": [121.80145279380189, 24.863592858849902]}}"
bridgetown-barbados,"Bridgetown, Barbados",False,13.098954014787664,-59.61336009649245,"{""type"": ""Feature"", ""properties"": {""id"": ""bridgetown-barbados"", ""name"": ""Bridgetown, Barbados"", ""is_tbd"": false}, ""geometry"": {""type"": ""Point"", ""coordinates"": [-59.61336009649245, 13.098954014787664]}}"
northport-ny-united-states,"Northport, NY, United States",False,40.90945509894606,-73.34411208824892,"{""type"": ""Feature"", ""properties"": {""id"": ""northport-ny-united-states"", ""name"": ""Northport, NY, United States"", ""is_tbd"": false}, ""geometry"": {""type"": ""Point"", ""coordinates"": [-73.34411208824892, 40.90945509894606]}}"
takapuna-new-zealand,"Takapuna, New Zealand",False,-36.78796527793357,174.76791917811025,"{""type"": ""Feature"", ""properties"": {""id"": ""takapuna-new-zealand"", ""name"": ""Takapuna, New Zealand"", ""is_tbd"": false}, ""geometry"": {""type"": ""Point"", ""coordinates"": [174.76791917811025, -36.78796527793357]}}"
whenuapai-new-zealand,"Whenuapai, New Zealand",False,-36.788806016342754,174.6233880304975,"{""type"": ""Feature"", ""properties"": {""id"": ""whenuapai-new-zealand"", ""name"": ""Whenuapai, New Zealand"", ""is_tbd"": false}, ""geometry"": {""type"": ""Point"", ""coordinates"": [174.6233880304975, -36.788806016342754]}}"
valparaso-chile,"Valparaíso, Chile",False,-33.045765558769304,-71.62048049678572,"{""type"": ""Feature"", ""properties"": {""id"": ""valparaso-chile"", ""name"": ""Valparaíso, Chile"", ""is_tbd"": false}, ""geometry"": {""type"": ""Point"", ""coordinates"": [-71.62048049678572, -33.045765558769304]}}"
lurin-peru,"Lurin, Peru",False,-12.278527239265857,-76.87428536869109,"{""type"": ""Feature"", ""properties"": {""id"": ""lurin-peru"", ""name"": ""Lurin, Peru"", ""is_tbd"": false}, ""geometry"": {""type"": ""Point"", ""coordinates"": [-76.87428536869109, -12.278527239265857]}}"
rio-de-janeiro-brazil,"Rio de Janeiro, Brazil",False,-22.90339400756494,-43.209563123346165,"{""type"": ""Feature"", ""properties"": {""id"": ""rio-de-janeiro-brazil"", ""name"": ""Rio de Janeiro, Brazil"", ""is_tbd"": false}, ""geometry"": {""type"": ""Point"", ""coordinates"": [-43.209563123346165, -22.90339400756494]}}"
santos-brazil,"Santos, Brazil",False,-23.961845467703107,-46.32806677354495,"{""type"": ""Feature"", ""properties"": {""id"": ""santos-brazil"", ""name"": ""Santos, Brazil"", ""is_tbd"": false}, ""geometry"": {""type"": ""Point"", ""coordinates"": [-46.32806677354495, -23.961845467703107]}}"
las-toninas-argentina,"Las Toninas, Argentina",False,-36.47252952471871,-56.695491069788275,"{""type"": ""Feature"", ""properties"": {""id"": ""las-toninas-argentina"", ""name"": ""Las Toninas, Argentina"", ""is_tbd"": false}, ""geometry"": {""type"": ""Point"", ""coordinates"": [-56.695491069788275, -36.47252952471871]}}"
maldonado-uruguay,"Maldonado, Uruguay",False,-34.900379504866834,-54.95017980618316,"{""type"": ""Feature"", ""properties"": {""id"": ""maldonado-uruguay"", ""name"": ""Maldonado, Uruguay"", ""is_tbd"": false}, ""geometry"": {""type"": ""Point"", ""coordinates"": [-54.95017980618316, -34.900379504866834]}}"
fort-amador-panama,"Fort Amador, Panama",False,8.934109660849998,-79.54673220597367,"{""type"": ""Feature"", ""properties"": {""id"": ""fort-amador-panama"", ""name"": ""Fort Amador, Panama"", ""is_tbd"": false}, ""geometry"": {""type"": ""Point"", ""coordinates"": [-79.54673220597367, 8.934109660849998]}}"
maruyama-japan,"Maruyama, Japan",False,35.005432999999265,139.97546699999984,"{""type"": ""Feature"", ""properties"": {""id"": ""maruyama-japan"", ""name"": ""Maruyama, Japan"", ""is_tbd"": false}, ""geometry"": {""type"": ""Point"", ""coordinates"": [139.97546699999984, 35.005432999999265]}}"
bluefields-nicaragua,"Bluefields, Nicaragua",False,11.991778023043153,-83.77146065844866,"{""type"": ""Feature"", ""properties"": {""id"": ""bluefields-nicaragua"", ""name"": ""Bluefields, Nicaragua"", ""is_tbd"": false}, ""geometry"": {""type"": ""Point"", ""coordinates"": [-83.77146065844866, 11.991778023043153]}}"
puerto-lempira-honduras,"Puerto Lempira, Honduras",False,15.261220674450207,-83.77675850625805,"{""type"": ""Feature"", ""properties"": {""id"": ""puerto-lempira-honduras"", ""name"": ""Puerto Lempira, Honduras"", ""is_tbd"": false}, ""geometry"": {""type"": ""Point"", ""coordinates"": [-83.77675850625805, 15.261220674450207]}}"
trujillo-honduras,"Trujillo, Honduras",False,15.915150827636316,-85.95475989302918,"{""type"": ""Feature"", ""properties"": {""id"": ""trujillo-honduras"", ""name"": ""Trujillo, Honduras"", ""is_tbd"": false}, ""geometry"": {""type"": ""Point"", ""coordinates"": [-85.95475989302918, 15.915150827636316]}}"
puerto-barrios-guatemala,"Puerto Barrios, Guatemala",False,15.727143540875408,-88.59723848982233,"{""type"": ""Feature"", ""properties"": {""id"": ""puerto-barrios-guatemala"", ""name"": ""Puerto Barrios, Guatemala"", ""is_tbd"": false}, ""geometry"": {""type"": ""Point"", ""coordinates"": [-88.59723848982233, 15.727143540875408]}}"
hillsboro-or-united-states,"Hillsboro, OR, United States",False,45.522898824562965,-122.98980067645105,"{""type"": ""Feature"", ""properties"": {""id"": ""hillsboro-or-united-states"", ""name"": ""Hillsboro, OR, United States"", ""is_tbd"": false}, ""geometry"": {""type"": ""Point"", ""coordinates"": [-122.98980067645105, 45.522898824562965]}}"
kahe-point-hi-united-states,"Kahe Point, HI, United States",False,21.35398165191293,-158.1305815657343,"{""type"": ""Feature"", ""properties"": {""id"": ""kahe-point-hi-united-states"", ""name"": ""Kahe Point, HI, United States"", ""is_tbd"": false}, ""geometry"": {""type"": ""Point"", ""coordinates"": [-158.1305815657343, 21.35398165191293]}}"
suva-fiji,"Suva, Fiji",False,-18.123812280017187,178.43744782858172,"{""type"": ""Feature"", ""properties"": {""id"": ""suva-fiji"", ""name"": ""Suva, Fiji"", ""is_tbd"": false}, ""geometry"": {""type"": ""Point"", ""coordinates"": [178.43744782858172, -18.123812280017187]}}"
savona-italy,"Savona, Italy",False,44.305540140669045,8.483759631619103,"{""type"": ""Feature"", ""properties"": {""id"": ""savona-italy"", ""name"": ""Savona, Italy"", ""is_tbd"": false}, ""geometry"": {""type"": ""Point"", ""coordinates"": [8.483759631619103, 44.305540140669045]}}"
baby-beach-aruba,"Baby Beach, Aruba",False,12.414141621401608,-69.87868485568913,"{""type"": ""Feature"", ""properties"": {""id"": ""baby-beach-aruba"", ""name"": ""Baby Beach, Aruba"", ""is_tbd"": false}, ""geometry"": {""type"": ""Point"", ""coordinates"": [-69.87868485568913, 12.414141621401608]}}"
halifax-ns-canada,"Halifax, NS, Canada",False,44.64579771640326,-63.573952993896306,"{""type"": ""Feature"", ""properties"": {""id"": ""halifax-ns-canada"", ""name"": ""Halifax, NS, Canada"", ""is_tbd"": false}, ""geometry"": {""type"": ""Point"", ""coordinates"": [-63.573952993896306, 44.64579771640326]}}"
lynn-ma-united-states,"Lynn, MA, United States",False,42.46366906639672,-70.95026612782192,"{""type"": ""Feature"", ""properties"": {""id"": ""lynn-ma-united-states"", ""name"": ""Lynn, MA, United States"", ""is_tbd"": false}, ""geometry"": {""type"": ""Point"", ""coordinates"": [-70.95026612782192, 42.46366906639672]}}"
dublin-ireland,"Dublin, Ireland",False,53.348045408252375,-6.248261182079236,"{""type"": ""Feature"", ""properties"": {""id"": ""dublin-ireland"", ""name"": ""Dublin, Ireland"", ""is_tbd"": false}, ""geometry"": {""type"": ""Point"", ""coordinates"": [-6.248261182079236, 53.348045408252375]}}"
southport-united-kingdom,"Southport, United Kingdom",False,53.64793071295795,-3.006368947416131,"{""type"": ""Feature"", ""properties"": {""id"": ""southport-united-kingdom"", ""name"": ""Southport, United Kingdom"", ""is_tbd"": false}, ""geometry"": {""type"": ""Point"", ""coordinates"": [-3.006368947416131, 53.64793071295795]}}"
bude-united-kingdom,"Bude, United Kingdom",False,50.82811048000128,-4.544404967232005,"{""type"": ""Feature"", ""properties"": {""id"": ""bude-united-kingdom"", ""name"": ""Bude, United Kingdom"", ""is_tbd"": false}, ""geometry"": {""type"": ""Point"", ""coordinates"": [-4.544404967232005, 50.82811048000128]}}"
san-juan-pr-united-states,"San Juan, PR, United States",False,18.465839112933374,-66.10666604344867,"{""type"": ""Feature"", ""properties"": {""id"": ""san-juan-pr-united-states"", ""name"": ""San Juan, PR, United States"", ""is_tbd"": false}, ""geometry"": {""type"": ""Point"", ""coordinates"": [-66.10666604344867, 18.465839112933374]}}"
karachi-pakistan,"Karachi, Pakistan",False,24.88937409747322,67.02854237669561,"{""type"": ""Feature"", ""properties"": {""id"": ""karachi-pakistan"", ""name"": ""Karachi, Pakistan"", ""is_tbd"": false}, ""geometry"": {""type"": ""Point"", ""coordinates"": [67.02854237669561, 24.88937409747322]}}"
haramous-djibouti,"Haramous, Djibouti",False,11.57367892559012,43.16166943911836,"{""type"": ""Feature"", ""properties"": {""id"": ""haramous-djibouti"", ""name"": ""Haramous, Djibouti"", ""is_tbd"": false}, ""geometry"": {""type"": ""Point"", ""coordinates"": [43.16166943911836, 11.57367892559012]}}"
yeroskipos-cyprus,"Yeroskipos, Cyprus",False,34.76641137968897,32.46655514198169,"{""type"": ""Feature"", ""properties"": {""id"": ""yeroskipos-cyprus"", ""name"": ""Yeroskipos, Cyprus"", ""is_tbd"": false}, ""geometry"": {""type"": ""Point"", ""coordinates"": [32.46655514198169, 34.76641137968897]}}"
marmaris-turkey,"Marmaris, Turkey",False,36.85524944302755,28.25366750143074,"{""type"": ""Feature"", ""properties"": {""id"": ""marmaris-turkey"", ""name"": ""Marmaris, Turkey"", ""is_tbd"": false}, ""geometry"": {""type"": ""Point"", ""coordinates"": [28.25366750143074, 36.85524944302755]}}"
mazara-del-vallo-italy,"Mazara del Vallo, Italy",False,37.650130188288585,12.591276253065702,"{""type"": ""Feature"", ""properties"": {""id"": ""mazara-del-vallo-italy"", ""name"": ""Mazara del Vallo, Italy"", ""is_tbd"": false}, ""geometry"": {""type"": ""Point"", ""coordinates"": [12.591276253065702, 37.650130188288585]}}"
sesimbra-portugal,"Sesimbra, Portugal",False,38.44269349871853,-9.1027513474316,"{""type"": ""Feature"", ""properties"": {""id"": ""sesimbra-portugal"", ""name"": ""Sesimbra, Portugal"", ""is_tbd"": false}, ""geometry"": {""type"": ""Point"", ""coordinates"": [-9.1027513474316, 38.44269349871853]}}"
goonhilly-downs-united-kingdom,"Goonhilly Downs, United Kingdom",False,50.0248026869269,-5.174531473969396,"{""type"": ""Feature"", ""properties"": {""id"": ""goonhilly-downs-united-kingdom"", ""name"": ""Goonhilly Downs, United Kingdom"", ""is_tbd"": false}, ""geometry"": {""type"": ""Point"", ""coordinates"": [-5.174531473969396, 50.0248026869269]}}"
sylt-germany,"Sylt, Germany",False,54.89850565849031,8.383369077736644,"{""type"": ""Feature"", ""properties"": {""id"": ""sylt-germany"", ""name"": ""Sylt, Germany"", ""is_tbd"": false}, ""geometry"": {""type"": ""Point"", ""coordinates"": [8.383369077736644, 54.89850565849031]}}"
dakar-senegal,"Dakar, Senegal",False,14.686597713745336,-17.451915354680473,"{""type"": ""Feature"", ""properties"": {""id"": ""dakar-senegal"", ""name"": ""Dakar, Senegal"", ""is_tbd"": false}, ""geometry"": {""type"": ""Point"", ""coordinates"": [-17.451915354680473, 14.686597713745336]}}"
conil-de-la-frontera-spain,"Conil de la Frontera, Spain",False,36.2765632358394,-6.087226139907921,"{""type"": ""Feature"", ""properties"": {""id"": ""conil-de-la-frontera-spain"", ""name"": ""Conil de la Frontera, Spain"", ""is_tbd"": false}, ""geometry"": {""type"": ""Point"", ""coordinates"": [-6.087226139907921, 36.2765632358394]}}"
nassau-bahamas,"Nassau, Bahamas",False,25.067038149721757,-77.34025183547105,"{""type"": ""Feature"", ""properties"": {""id"": ""nassau-bahamas"", ""name"": ""Nassau, Bahamas"", ""is_tbd"": false}, ""geometry"": {""type"": ""Point"", ""coordinates"": [-77.34025183547105, 25.067038149721757]}}"
crooked-island-bahamas,"Crooked Island, Bahamas",False,22.629711836470232,-74.19499039172877,"{""type"": ""Feature"", ""properties"": {""id"": ""crooked-island-bahamas"", ""name"": ""Crooked Island, Bahamas"", ""is_tbd"": false}, ""geometry"": {""type"": ""Point"", ""coordinates"": [-74.19499039172877, 22.629711836470232]}}"
providenciales-turks-and-caicos-islands,"Providenciales, Turks and Caicos Islands",False,21.851092241181057,-72.12023600213026,"{""type"": ""Feature"", ""properties"": {""id"": ""providenciales-turks-and-caicos-islands"", ""name"": ""Providenciales, Turks and Caicos Islands"", ""is_tbd"": false}, ""geometry"": {""type"": ""Point"", ""coordinates"": [-72.12023600213026, 21.851092241181057]}}"
punta-cana-dominican-republic,"Punta Cana, Dominican Republic",False,18.621279512611874,-68.43825618860332,"{""type"": ""Feature"", ""properties"": {""id"": ""punta-cana-dominican-republic"", ""name"": ""Punta Cana, Dominican Republic"", ""is_tbd"": false}, ""geometry"": {""type"": ""Point"", ""coordinates"": [-68.43825618860332, 18.621279512611874]}}"
puerto-plata-dominican-republic,"Puerto Plata, Dominican Republic",False,19.79934388457018,-70.6912331081983,"{""type"": ""Feature"", ""properties"": {""id"": ""puerto-plata-dominican-republic"", ""name"": ""Puerto Plata, Dominican Republic"", ""is_tbd"": false}, ""geometry"": {""type"": ""Point"", ""coordinates"": [-70.6912331081983, 19.79934388457018]}}"
riohacha-colombia,"Riohacha, Colombia",False,11.482908943707109,-72.95270611552462,"{""type"": ""Feature"", ""properties"": {""id"": ""riohacha-colombia"", ""name"": ""Riohacha, Colombia"", ""is_tbd"": false}, ""geometry"": {""type"": ""Point"", ""coordinates"": [-72.95270611552462, 11.482908943707109]}}"
castries-saint-lucia,"Castries, Saint Lucia",False,13.994222056803721,-61.00681614060512,"{""type"": ""Feature"", ""properties"": {""id"": ""castries-saint-lucia"", ""name"": ""Castries, Saint Lucia"", ""is_tbd"": false}, ""geometry"": {""type"": ""Point"", ""coordinates"": [-61.00681614060512, 13.994222056803721]}}"
pointe-a-pitre-guadeloupe,"Pointe-a-Pitre, Guadeloupe",False,16.241044022954217,-61.53308529904113,"{""type"": ""Feature"", ""properties"": {""id"": ""pointe-a-pitre-guadeloupe"", ""name"": ""Pointe-a-Pitre, Guadeloupe"", ""is_tbd"": false}, ""geometry"": {""type"": ""Point"", ""coordinates"": [-61.53308529904113, 16.241044022954217]}}"
roseau-dominica,"Roseau, Dominica",False,15.251799221840017,-61.37073189842878,"{""type"": ""Feature"", ""properties"": {""id"": ""roseau-dominica"", ""name"": ""Roseau, Dominica"", ""is_tbd"": false}, ""geometry"": {""type"": ""Point"", ""coordinates"": [-61.37073189842878, 15.251799221840017]}}"
the-valley-anguilla,"The Valley, Anguilla",False,18.217405253293137,-63.0572053130902,"{""type"": ""Feature"", ""properties"": {""id"": ""the-valley-anguilla"", ""name"": ""The Valley, Anguilla"", ""is_tbd"": false}, ""geometry"": {""type"": ""Point"", ""coordinates"": [-63.0572053130902, 18.217405253293137]}}"
cagliari-italy,"Cagliari, Italy",False,39.21530980337921,9.109345125948376,"{""type"": ""Feature"", ""properties"": {""id"": ""cagliari-italy"", ""name"": ""Cagliari, Italy"", ""is_tbd"": false}, ""geometry"": {""type"": ""Point"", ""coordinates"": [9.109345125948376, 39.21530980337921]}}"
civitavecchia-italy,"Civitavecchia, Italy",False,42.091130652249426,11.796843222099477,"{""type"": ""Feature"", ""properties"": {""id"": ""civitavecchia-italy"", ""name"": ""Civitavecchia, Italy"", ""is_tbd"": false}, ""geometry"": {""type"": ""Point"", ""coordinates"": [11.796843222099477, 42.091130652249426]}}"
olbia-italy,"Olbia, Italy",False,40.923576400000215,9.49644289999974,"{""type"": ""Feature"", ""properties"": {""id"": ""olbia-italy"", ""name"": ""Olbia, Italy"", ""is_tbd"": false}, ""geometry"": {""type"": ""Point"", ""coordinates"": [9.49644289999974, 40.923576400000215]}}"
khark-island-iran,"Khark Island, Iran",False,29.245773309269826,50.31205031256539,"{""type"": ""Feature"", ""properties"": {""id"": ""khark-island-iran"", ""name"": ""Khark Island, Iran"", ""is_tbd"": false}, ""geometry"": {""type"": ""Point"", ""coordinates"": [50.31205031256539, 29.245773309269826]}}"
soroosh-platform-iran,"Soroosh Platform, Iran",False,29.072484050458698,49.47806652836741,"{""type"": ""Feature"", ""properties"": {""id"": ""soroosh-platform-iran"", ""name"": ""Soroosh Platform, Iran"", ""is_tbd"": false}, ""geometry"": {""type"": ""Point"", ""coordinates"": [49.47806652836741, 29.072484050458698]}}"
diba-oman,"Diba, Oman",False,25.616974601949348,56.258042194119106,"{""type"": ""Feature"", ""properties"": {""id"": ""diba-oman"", ""name"": ""Diba, Oman"", ""is_tbd"": false}, ""geometry"": {""type"": ""Point"", ""coordinates"": [56.258042194119106, 25.616974601949348]}}"
tanah-merah-singapore,"Tanah Merah, Singapore",False,1.327257988673153,103.9465826298595,"{""type"": ""Feature"", ""properties"": {""id"": ""tanah-merah-singapore"", ""name"": ""Tanah Merah, Singapore"", ""is_tbd"": false}, ""geometry"": {""type"": ""Point"", ""coordinates"": [103.9465826298595, 1.327257988673153]}}"
nanhui-china,"Nanhui, China",False,30.864713861582327,121.92506915087795,"{""type"": ""Feature"", ""properties"": {""id"": ""nanhui-china"", ""name"": ""Nanhui, China"", ""is_tbd"": false}, ""geometry"": {""type"": ""Point"", ""coordinates"": [121.92506915087795, 30.864713861582327]}}"
west-palm-beach-fl-united-states,"West Palm Beach, FL, United States",False,26.715357789296696,-80.05334805801945,"{""type"": ""Feature"", ""properties"": {""id"": ""west-palm-beach-fl-united-states"", ""name"": ""West Palm Beach, FL, United States"", ""is_tbd"": false}, ""geometry"": {""type"": ""Point"", ""coordinates"": [-80.05334805801945, 26.715357789296696]}}"
magens-bay-vi-united-states,"Magen’s Bay, VI, United States",False,18.372989080105853,-64.93708679386458,"{""type"": ""Feature"", ""properties"": {""id"": ""magens-bay-vi-united-states"", ""name"": ""Magen’s Bay, VI, United States"", ""is_tbd"": false}, ""geometry"": {""type"": ""Point"", ""coordinates"": [-64.93708679386458, 18.372989080105853]}}"
samandag-turkey,"Samandag, Turkey",False,36.08233778303261,35.99926748312506,"{""type"": ""Feature"", ""properties"": {""id"": ""samandag-turkey"", ""name"": ""Samandag, Turkey"", ""is_tbd"": false}, ""geometry"": {""type"": ""Point"", ""coordinates"": [35.99926748312506, 36.08233778303261]}}"
girne-cyprus,"Girne, Cyprus",False,35.2991225036909,33.23628115920059,"{""type"": ""Feature"", ""properties"": {""id"": ""girne-cyprus"", ""name"": ""Girne, Cyprus"", ""is_tbd"": false}, ""geometry"": {""type"": ""Point"", ""coordinates"": [33.23628115920059, 35.2991225036909]}}"
hudishibana-aruba,"Hudishibana, Aruba",False,12.616634445885316,-70.04997379684741,"{""type"": ""Feature"", ""properties"": {""id"": ""hudishibana-aruba"", ""name"": ""Hudishibana, Aruba"", ""is_tbd"": false}, ""geometry"": {""type"": ""Point"", ""coordinates"": [-70.04997379684741, 12.616634445885316]}}"
tyra-denmark,"Tyra, Denmark",False,55.71560692113311,4.748508371456093,"{""type"": ""Feature"", ""properties"": {""id"": ""tyra-denmark"", ""name"": ""Tyra, Denmark"", ""is_tbd"": false}, ""geometry"": {""type"": ""Point"", ""coordinates"": [4.748508371456093, 55.71560692113311]}}"
valdemar-denmark,"Valdemar, Denmark",False,55.80407237566748,4.564328814430503,"{""type"": ""Feature"", ""properties"": {""id"": ""valdemar-denmark"", ""name"": ""Valdemar, Denmark"", ""is_tbd"": false}, ""geometry"": {""type"": ""Point"", ""coordinates"": [4.564328814430503, 55.80407237566748]}}"
south-arne-denmark,"South Arne, Denmark",False,56.07828845791397,4.228391552411684,"{""type"": ""Feature"", ""properties"": {""id"": ""south-arne-denmark"", ""name"": ""South Arne, Denmark"", ""is_tbd"": false}, ""geometry"": {""type"": ""Point"", ""coordinates"": [4.228391552411684, 56.07828845791397]}}"
ajaccio-france,"Ajaccio, France",False,41.91932911005837,8.738642263557752,"{""type"": ""Feature"", ""properties"": {""id"": ""ajaccio-france"", ""name"": ""Ajaccio, France"", ""is_tbd"": false}, ""geometry"": {""type"": ""Point"", ""coordinates"": [8.738642263557752, 41.91932911005837]}}"
la-seyne-france,"La Seyne, France",False,43.1029080448373,5.878097414994473,"{""type"": ""Feature"", ""properties"": {""id"": ""la-seyne-france"", ""name"": ""La Seyne, France"", ""is_tbd"": false}, ""geometry"": {""type"": ""Point"", ""coordinates"": [5.878097414994473, 43.1029080448373]}}"
lle-rousse-france,"L’Île-Rousse, France",False,42.6365095071255,8.937079622982862,"{""type"": ""Feature"", ""properties"": {""id"": ""lle-rousse-france"", ""name"": ""L’Île-Rousse, France"", ""is_tbd"": false}, ""geometry"": {""type"": ""Point"", ""coordinates"": [8.937079622982862, 42.6365095071255]}}"
cannes-france,"Cannes, France",False,43.552927166028965,7.01735442043418,"{""type"": ""Feature"", ""properties"": {""id"": ""cannes-france"", ""name"": ""Cannes, France"", ""is_tbd"": false}, ""geometry"": {""type"": ""Point"", ""coordinates"": [7.01735442043418, 43.552927166028965]}}"
alsgarde-denmark,"Alsgarde, Denmark",False,56.074882184341305,12.536881760350429,"{""type"": ""Feature"", ""properties"": {""id"": ""alsgarde-denmark"", ""name"": ""Alsgarde, Denmark"", ""is_tbd"": false}, ""geometry"": {""type"": ""Point"", ""coordinates"": [12.536881760350429, 56.074882184341305]}}"
kristiansand-norway,"Kristiansand, Norway",False,58.15095596477219,7.996259976968266,"{""type"": ""Feature"", ""properties"": {""id"": ""kristiansand-norway"", ""name"": ""Kristiansand, Norway"", ""is_tbd"": false}, ""geometry"": {""type"": ""Point"", ""coordinates"": [7.996259976968266, 58.15095596477219]}}"
monte-carlo-monaco,"Monte Carlo, Monaco",False,43.73973086446908,7.42721741133341,"{""type"": ""Feature"", ""properties"": {""id"": ""monte-carlo-monaco"", ""name"": ""Monte Carlo, Monaco"", ""is_tbd"": false}, ""geometry"": {""type"": ""Point"", ""coordinates"": [7.42721741133341, 43.73973086446908]}}"
otranto-italy,"Otranto, Italy",False,40.14805341338409,18.48570567114653,"{""type"": ""Feature"", ""properties"": {""id"": ""otranto-italy"", ""name"": ""Otranto, Italy"", ""is_tbd"": false}, ""geometry"": {""type"": ""Point"", ""coordinates"": [18.48570567114653, 40.14805341338409]}}"
umag-croatia,"Umag, Croatia",False,45.43310919075176,13.520181845020224,"{""type"": ""Feature"", ""properties"": {""id"": ""umag-croatia"", ""name"": ""Umag, Croatia"", ""is_tbd"": false}, ""geometry"": {""type"": ""Point"", ""coordinates"": [13.520181845020224, 45.43310919075176]}}"
mestre-italy,"Mestre, Italy",False,45.49587287439114,12.244108530252593,"{""type"": ""Feature"", ""properties"": {""id"": ""mestre-italy"", ""name"": ""Mestre, Italy"", ""is_tbd"": false}, ""geometry"": {""type"": ""Point"", ""coordinates"": [12.244108530252593, 45.49587287439114]}}"
vaasa-finland,"Vaasa, Finland",False,63.09519496029314,21.6163675158564,"{""type"": ""Feature"", ""properties"": {""id"": ""vaasa-finland"", ""name"": ""Vaasa, Finland"", ""is_tbd"": false}, ""geometry"": {""type"": ""Point"", ""coordinates"": [21.6163675158564, 63.09519496029314]}}"
ume-sweden,"Umeå, Sweden",False,63.82586986108827,20.262950505879612,"{""type"": ""Feature"", ""properties"": {""id"": ""ume-sweden"", ""name"": ""Umeå, Sweden"", ""is_tbd"": false}, ""geometry"": {""type"": ""Point"", ""coordinates"": [20.262950505879612, 63.82586986108827]}}"
nynashamn-sweden,"Nynashamn, Sweden",False,58.902924681852696,17.94654589684356,"{""type"": ""Feature"", ""properties"": {""id"": ""nynashamn-sweden"", ""name"": ""Nynashamn, Sweden"", ""is_tbd"": false}, ""geometry"": {""type"": ""Point"", ""coordinates"": [17.94654589684356, 58.902924681852696]}}"
meremisa-estonia,"Meremöisa, Estonia",False,59.40084650364711,24.276619537558968,"{""type"": ""Feature"", ""properties"": {""id"": ""meremisa-estonia"", ""name"": ""Meremöisa, Estonia"", ""is_tbd"": false}, ""geometry"": {""type"": ""Point"", ""coordinates"": [24.276619537558968, 59.40084650364711]}}"
dubrovnik-croatia,"Dubrovnik, Croatia",False,42.64186152795143,18.106409064843877,"{""type"": ""Feature"", ""properties"": {""id"": ""dubrovnik-croatia"", ""name"": ""Dubrovnik, Croatia"", ""is_tbd"": false}, ""geometry"": {""type"": ""Point"", ""coordinates"": [18.106409064843877, 42.64186152795143]}}"
aethos-greece,"Aethos, Greece",False,39.683615198996556,20.01544924229398,"{""type"": ""Feature"", ""properties"": {""id"": ""aethos-greece"", ""name"": ""Aethos, Greece"", ""is_tbd"": false}, ""geometry"": {""type"": ""Point"", ""coordinates"": [20.01544924229398, 39.683615198996556]}}"
corfu-greece,"Corfu, Greece",False,39.61929827180403,19.9194937179377,"{""type"": ""Feature"", ""properties"": {""id"": ""corfu-greece"", ""name"": ""Corfu, Greece"", ""is_tbd"": false}, ""geometry"": {""type"": ""Point"", ""coordinates"": [19.9194937179377, 39.61929827180403]}}"
durres-albania,"Durres, Albania",False,41.316693174085714,19.45006045673864,"{""type"": ""Feature"", ""properties"": {""id"": ""durres-albania"", ""name"": ""Durres, Albania"", ""is_tbd"": false}, ""geometry"": {""type"": ""Point"", ""coordinates"": [19.45006045673864, 41.316693174085714]}}"
port-nelson-bahamas,"Port Nelson, Bahamas",False,23.652143168499897,-74.84054657503567,"{""type"": ""Feature"", ""properties"": {""id"": ""port-nelson-bahamas"", ""name"": ""Port Nelson, Bahamas"", ""is_tbd"": false}, ""geometry"": {""type"": ""Point"", ""coordinates"": [-74.84054657503567, 23.652143168499897]}}"
george-town-bahamas,"George Town, Bahamas",False,23.516551982193732,-75.78800684134592,"{""type"": ""Feature"", ""properties"": {""id"": ""george-town-bahamas"", ""name"": ""George Town, Bahamas"", ""is_tbd"": false}, ""geometry"": {""type"": ""Point"", ""coordinates"": [-75.78800684134592, 23.516551982193732]}}"
clarence-town-bahamas,"Clarence Town, Bahamas",False,23.09834303441083,-74.96618125165993,"{""type"": ""Feature"", ""properties"": {""id"": ""clarence-town-bahamas"", ""name"": ""Clarence Town, Bahamas"", ""is_tbd"": false}, ""geometry"": {""type"": ""Point"", ""coordinates"": [-74.96618125165993, 23.09834303441083]}}"
cockburn-town-bahamas,"Cockburn Town, Bahamas",False,24.05253194857149,-74.53024406048189,"{""type"": ""Feature"", ""properties"": {""id"": ""cockburn-town-bahamas"", ""name"": ""Cockburn Town, Bahamas"", ""is_tbd"": false}, ""geometry"": {""type"": ""Point"", ""coordinates"": [-74.53024406048189, 24.05253194857149]}}"
governors-harbor-bahamas,"Governors Harbor, Bahamas",False,25.196118966380833,-76.24064323944407,"{""type"": ""Feature"", ""properties"": {""id"": ""governors-harbor-bahamas"", ""name"": ""Governors Harbor, Bahamas"", ""is_tbd"": false}, ""geometry"": {""type"": ""Point"", ""coordinates"": [-76.24064323944407, 25.196118966380833]}}"
duncan-town-bahamas,"Duncan Town, Bahamas",False,22.183261833926533,-75.73346586435832,"{""type"": ""Feature"", ""properties"": {""id"": ""duncan-town-bahamas"", ""name"": ""Duncan Town, Bahamas"", ""is_tbd"": false}, ""geometry"": {""type"": ""Point"", ""coordinates"": [-75.73346586435832, 22.183261833926533]}}"
mayaguana-bahamas,"Mayaguana, Bahamas",False,22.40156502331468,-73.0641318178386,"{""type"": ""Feature"", ""properties"": {""id"": ""mayaguana-bahamas"", ""name"": ""Mayaguana, Bahamas"", ""is_tbd"": false}, ""geometry"": {""type"": ""Point"", ""coordinates"": [-73.0641318178386, 22.40156502331468]}}"
kuala-tungkal-indonesia,"Kuala Tungkal, Indonesia",False,-0.816539442758962,103.46670015731281,"{""type"": ""Feature"", ""properties"": {""id"": ""kuala-tungkal-indonesia"", ""name"": ""Kuala Tungkal, Indonesia"", ""is_tbd"": false}, ""geometry"": {""type"": ""Point"", ""coordinates"": [103.46670015731281, -0.816539442758962]}}"
batam-indonesia,"Batam, Indonesia",False,1.066796188550793,104.01664054897991,"{""type"": ""Feature"", ""properties"": {""id"": ""batam-indonesia"", ""name"": ""Batam, Indonesia"", ""is_tbd"": false}, ""geometry"": {""type"": ""Point"", ""coordinates"": [104.01664054897991, 1.066796188550793]}}"
sakra-island-singapore,"Sakra Island, Singapore",False,1.258916074584671,103.70419998906566,"{""type"": ""Feature"", ""properties"": {""id"": ""sakra-island-singapore"", ""name"": ""Sakra Island, Singapore"", ""is_tbd"": false}, ""geometry"": {""type"": ""Point"", ""coordinates"": [103.70419998906566, 1.258916074584671]}}"
grover-beach-ca-united-states,"Grover Beach, CA, United States",False,35.1206334382351,-120.62142234655879,"{""type"": ""Feature"", ""properties"": {""id"": ""grover-beach-ca-united-states"", ""name"": ""Grover Beach, CA, United States"", ""is_tbd"": false}, ""geometry"": {""type"": ""Point"", ""coordinates"": [-120.62142234655879, 35.1206334382351]}}"
shima-japan,"Shima, Japan",False,34.33683057441225,136.87439133474103,"{""type"": ""Feature"", ""properties"": {""id"": ""shima-japan"", ""name"": ""Shima, Japan"", ""is_tbd"": false}, ""geometry"": {""type"": ""Point"", ""coordinates"": [136.87439133474103, 34.33683057441225]}}"
ajigaura-japan,"Ajigaura, Japan",False,36.38355921004956,140.61227931178595,"{""type"": ""Feature"", ""properties"": {""id"": ""ajigaura-japan"", ""name"": ""Ajigaura, Japan"", ""is_tbd"": false}, ""geometry"": {""type"": ""Point"", ""coordinates"": [140.61227931178595, 36.38355921004956]}}"
brookhaven-ny-united-states,"Brookhaven, NY, United States",False,40.773148001414974,-72.91227645666531,"{""type"": ""Feature"", ""properties"": {""id"": ""brookhaven-ny-united-states"", ""name"": ""Brookhaven, NY, United States"", ""is_tbd"": false}, ""geometry"": {""type"": ""Point"", ""coordinates"": [-72.91227645666531, 40.773148001414974]}}"
beverwijk-netherlands,"Beverwijk, Netherlands",False,52.48631265079464,4.656906873847417,"{""type"": ""Feature"", ""properties"": {""id"": ""beverwijk-netherlands"", ""name"": ""Beverwijk, Netherlands"", ""is_tbd"": false}, ""geometry"": {""type"": ""Point"", ""coordinates"": [4.656906873847417, 52.48631265079464]}}"
whitesands-bay-united-kingdom,"Whitesands Bay, United Kingdom",False,50.07851709909518,-5.6984568840657,"{""type"": ""Feature"", ""properties"": {""id"": ""whitesands-bay-united-kingdom"", ""name"": ""Whitesands Bay, United Kingdom"", ""is_tbd"": false}, ""geometry"": {""type"": ""Point"", ""coordinates"": [-5.6984568840657, 50.07851709909518]}}"
tijuana-mexico,"Tijuana, Mexico",False,32.53084977596535,-117.03822175993173,"{""type"": ""Feature"", ""properties"": {""id"": ""tijuana-mexico"", ""name"": ""Tijuana, Mexico"", ""is_tbd"": false}, ""geometry"": {""type"": ""Point"", ""coordinates"": [-117.03822175993173, 32.53084977596535]}}"
bozyazi-turkey,"Bozyazi, Turkey",False,36.09999800000024,32.966701999999856,"{""type"": ""Feature"", ""properties"": {""id"": ""bozyazi-turkey"", ""name"": ""Bozyazi, Turkey"", ""is_tbd"": false}, ""geometry"": {""type"": ""Point"", ""coordinates"": [32.966701999999856, 36.09999800000024]}}"
daet-philippines,"Daet, Philippines",False,14.116616393710665,122.94988948023871,"{""type"": ""Feature"", ""properties"": {""id"": ""daet-philippines"", ""name"": ""Daet, Philippines"", ""is_tbd"": false}, ""geometry"": {""type"": ""Point"", ""coordinates"": [122.94988948023871, 14.116616393710665]}}"
st-ouens-bay-jersey,"St. Ouens Bay, Jersey",False,49.215711233966566,-2.225900750307065,"{""type"": ""Feature"", ""properties"": {""id"": ""st-ouens-bay-jersey"", ""name"": ""St. Ouens Bay, Jersey"", ""is_tbd"": false}, ""geometry"": {""type"": ""Point"", ""coordinates"": [-2.225900750307065, 49.215711233966566]}}"
archirondel-jersey,"Archirondel, Jersey",False,49.22527885088672,-2.021311051490342,"{""type"": ""Feature"", ""properties"": {""id"": ""archirondel-jersey"", ""name"": ""Archirondel, Jersey"", ""is_tbd"": false}, ""geometry"": {""type"": ""Point"", ""coordinates"": [-2.021311051490342, 49.22527885088672]}}"
surville-france,"Surville, France",False,49.28329065675959,-1.650022252014811,"{""type"": ""Feature"", ""properties"": {""id"": ""surville-france"", ""name"": ""Surville, France"", ""is_tbd"": false}, ""geometry"": {""type"": ""Point"", ""coordinates"": [-1.650022252014811, 49.28329065675959]}}"
greve-de-lecq-jersey,"Greve de Lecq, Jersey",False,49.24794670647614,-2.201437877011841,"{""type"": ""Feature"", ""properties"": {""id"": ""greve-de-lecq-jersey"", ""name"": ""Greve de Lecq, Jersey"", ""is_tbd"": false}, ""geometry"": {""type"": ""Point"", ""coordinates"": [-2.201437877011841, 49.24794670647614]}}"
havelet-bay-guernsey,"Havelet Bay, Guernsey",False,49.4509894968767,-2.529513816474767,"{""type"": ""Feature"", ""properties"": {""id"": ""havelet-bay-guernsey"", ""name"": ""Havelet Bay, Guernsey"", ""is_tbd"": false}, ""geometry"": {""type"": ""Point"", ""coordinates"": [-2.529513816474767, 49.4509894968767]}}"
new-victoria-ns-canada,"New Victoria, NS, Canada",False,46.25290729969465,-60.12957066830409,"{""type"": ""Feature"", ""properties"": {""id"": ""new-victoria-ns-canada"", ""name"": ""New Victoria, NS, Canada"", ""is_tbd"": false}, ""geometry"": {""type"": ""Point"", ""coordinates"": [-60.12957066830409, 46.25290729969465]}}"
rose-blanche-nl-canada,"Rose Blanche, NL, Canada",False,47.61768929491325,-58.68660294051598,"{""type"": ""Feature"", ""properties"": {""id"": ""rose-blanche-nl-canada"", ""name"": ""Rose Blanche, NL, Canada"", ""is_tbd"": false}, ""geometry"": {""type"": ""Point"", ""coordinates"": [-58.68660294051598, 47.61768929491325]}}"
lancresse-bay-guernsey,"L'Ancresse Bay, Guernsey",False,49.503393052866365,-2.533468891797979,"{""type"": ""Feature"", ""properties"": {""id"": ""lancresse-bay-guernsey"", ""name"": ""L'Ancresse Bay, Guernsey"", ""is_tbd"": false}, ""geometry"": {""type"": ""Point"", ""coordinates"": [-2.533468891797979, 49.503393052866365]}}"
saints-bay-guernsey,"Saints Bay, Guernsey",False,49.42332555697762,-2.55802942127399,"{""type"": ""Feature"", ""properties"": {""id"": ""saints-bay-guernsey"", ""name"": ""Saints Bay, Guernsey"", ""is_tbd"": false}, ""geometry"": {""type"": ""Point"", ""coordinates"": [-2.55802942127399, 49.42332555697762]}}"
pembroke-guernsey,"Pembroke, Guernsey",False,49.50954423335227,-2.537619279482766,"{""type"": ""Feature"", ""properties"": {""id"": ""pembroke-guernsey"", ""name"": ""Pembroke, Guernsey"", ""is_tbd"": false}, ""geometry"": {""type"": ""Point"", ""coordinates"": [-2.537619279482766, 49.50954423335227]}}"
malabo-equatorial-guinea,"Malabo, Equatorial Guinea",False,3.749792920040749,8.783368794372972,"{""type"": ""Feature"", ""properties"": {""id"": ""malabo-equatorial-guinea"", ""name"": ""Malabo, Equatorial Guinea"", ""is_tbd"": false}, ""geometry"": {""type"": ""Point"", ""coordinates"": [8.783368794372972, 3.749792920040749]}}"
palma-spain,"Palma, Spain",False,39.55232558289561,2.60524817101164,"{""type"": ""Feature"", ""properties"": {""id"": ""palma-spain"", ""name"": ""Palma, Spain"", ""is_tbd"": false}, ""geometry"": {""type"": ""Point"", ""coordinates"": [2.60524817101164, 39.55232558289561]}}"
santa-cruz-de-la-palma-canary-islands-spain,"Santa Cruz de La Palma, Canary Islands, Spain",False,28.663181918946645,-17.76524521083967,"{""type"": ""Feature"", ""properties"": {""id"": ""santa-cruz-de-la-palma-canary-islands-spain"", ""name"": ""Santa Cruz de La Palma, Canary Islands, Spain"", ""is_tbd"": false}, ""geometry"": {""type"": ""Point"", ""coordinates"": [-17.76524521083967, 28.663181918946645]}}"
granadilla-de-abona-spain,"Granadilla de Abona, Spain",False,28.059115806261115,-16.518053538916995,"{""type"": ""Feature"", ""properties"": {""id"": ""granadilla-de-abona-spain"", ""name"": ""Granadilla de Abona, Spain"", ""is_tbd"": false}, ""geometry"": {""type"": ""Point"", ""coordinates"": [-16.518053538916995, 28.059115806261115]}}"
nukualofa-tonga,"Nuku'alofa, Tonga",False,-21.133285523298625,-175.2000320590245,"{""type"": ""Feature"", ""properties"": {""id"": ""nukualofa-tonga"", ""name"": ""Nuku'alofa, Tonga"", ""is_tbd"": false}, ""geometry"": {""type"": ""Point"", ""coordinates"": [-175.2000320590245, -21.133285523298625]}}"
fresh-creek-bahamas,"Fresh Creek, Bahamas",False,24.689806158505295,-77.84460938833539,"{""type"": ""Feature"", ""properties"": {""id"": ""fresh-creek-bahamas"", ""name"": ""Fresh Creek, Bahamas"", ""is_tbd"": false}, ""geometry"": {""type"": ""Point"", ""coordinates"": [-77.84460938833539, 24.689806158505295]}}"
melonguane-indonesia,"Melonguane, Indonesia",False,4.042997369771683,126.71726962389127,"{""type"": ""Feature"", ""properties"": {""id"": ""melonguane-indonesia"", ""name"": ""Melonguane, Indonesia"", ""is_tbd"": false}, ""geometry"": {""type"": ""Point"", ""coordinates"": [126.71726962389127, 4.042997369771683]}}"
morotai-indonesia,"Morotai, Indonesia",False,2.365656185992342,128.40081335312806,"{""type"": ""Feature"", ""properties"": {""id"": ""morotai-indonesia"", ""name"": ""Morotai, Indonesia"", ""is_tbd"": false}, ""geometry"": {""type"": ""Point"", ""coordinates"": [128.40081335312806, 2.365656185992342]}}"
tobelo-indonesia,"Tobelo, Indonesia",False,1.71458385132884,127.96785467546509,"{""type"": ""Feature"", ""properties"": {""id"": ""tobelo-indonesia"", ""name"": ""Tobelo, Indonesia"", ""is_tbd"": false}, ""geometry"": {""type"": ""Point"", ""coordinates"": [127.96785467546509, 1.71458385132884]}}"
ternate-indonesia,"Ternate, Indonesia",False,0.79580852872504,127.36133655044124,"{""type"": ""Feature"", ""properties"": {""id"": ""ternate-indonesia"", ""name"": ""Ternate, Indonesia"", ""is_tbd"": false}, ""geometry"": {""type"": ""Point"", ""coordinates"": [127.36133655044124, 0.79580852872504]}}"
sofifi-indonesia,"Sofifi, Indonesia",False,0.734974159349461,127.56143406494019,"{""type"": ""Feature"", ""properties"": {""id"": ""sofifi-indonesia"", ""name"": ""Sofifi, Indonesia"", ""is_tbd"": false}, ""geometry"": {""type"": ""Point"", ""coordinates"": [127.56143406494019, 0.734974159349461]}}"
tidore-indonesia,"Tidore, Indonesia",False,0.674004693399349,127.40408554359549,"{""type"": ""Feature"", ""properties"": {""id"": ""tidore-indonesia"", ""name"": ""Tidore, Indonesia"", ""is_tbd"": false}, ""geometry"": {""type"": ""Point"", ""coordinates"": [127.40408554359549, 0.674004693399349]}}"
luwuk-indonesia,"Luwuk, Indonesia",False,-0.938827229844351,122.79278509934603,"{""type"": ""Feature"", ""properties"": {""id"": ""luwuk-indonesia"", ""name"": ""Luwuk, Indonesia"", ""is_tbd"": false}, ""geometry"": {""type"": ""Point"", ""coordinates"": [122.79278509934603, -0.938827229844351]}}"
salakan-indonesia,"Salakan, Indonesia",False,-1.301013030053515,123.3401968209294,"{""type"": ""Feature"", ""properties"": {""id"": ""salakan-indonesia"", ""name"": ""Salakan, Indonesia"", ""is_tbd"": false}, ""geometry"": {""type"": ""Point"", ""coordinates"": [123.3401968209294, -1.301013030053515]}}"
bangga-indonesia,"Bangga, Indonesia",False,-1.600278223931106,123.5275341004328,"{""type"": ""Feature"", ""properties"": {""id"": ""bangga-indonesia"", ""name"": ""Bangga, Indonesia"", ""is_tbd"": false}, ""geometry"": {""type"": ""Point"", ""coordinates"": [123.5275341004328, -1.600278223931106]}}"
